연번,구분,도로명주소,지번주소,위도,경도,면적(m2)
1,경로당+마을회관+무더위심터,충청북도 옥천군 옥천읍 향수2길 46-11,충청북도 옥천군 옥천읍 죽향리 52-2,36.31683409,127.5812922,92.82
2,경로당+마을회관,"충청북도 옥천군 옥천읍 성왕로 1274, 옥향@",충청북도 옥천군 옥천읍 죽향리 153-2번지 옥향@,36.31669323,127.5788049,70
3,경로당,"충청북도 옥천군 옥천읍 성왕로 1262, 향수마을@ 101",충청북도 옥천군 옥천읍 죽향 196-2 향수마을@ 101,36.31616404,127.5773579,72.81
4,경로당+마을회관+무더위심터,충청북도 옥천군 옥천읍 향수2길 9,충청북도 옥천군 옥천읍 문정리 53,36.31378827,127.5792783,109.16
5,경로당+마을회관+무더위심터,충청북도 옥천군 옥천읍 문정2길13-15,충청북도 옥천군 옥천읍 문정리 446-23,36.3051643,127.5732787,83.45
6,경로당+마을회관,"충청북도 옥천군 옥천읍 동부로 16, 하늘빛@ 105",충청북도 옥천군 옥천읍 문정리 430-1 하늘빛@105,36.30608229,127.5736803,95.94
7,경로당+마을회관+무더위심터,"충청북도 옥천군 옥천읍 관성로1길 18, 진달래@",충청북도 옥천군 옥천읍 문정리 467-5 진달래@,36.30334731,127.5730254,60
8,경로당+마을회관+무더위심터,"충청북도 옥천군 옥천읍 문장로2길 9, 문정@2단지",충청북도 옥천군 옥천읍 문정리 374 주공2단지,36.30329811,127.5766977,65
9,경로당+무더위심터,"충청북도 옥천군 옥천읍 문장로2길 10, 문정@3단지",충청북도 옥천군 옥천읍 문정리 376 주공3단지,36.30182951,127.577229,65
10,경로당+무더위심터,충청북도 옥천군 옥천읍 향수3길 30 ,충청북도 옥천군 옥천읍 상계리 96-3,36.31523062,127.5807219,82.5
11,경로당,충청북도 옥천군 옥천읍 향수4길 19 ,충청북도 옥천군 옥천읍 상계리97,36.3153772,127.5810812,195.3
12,경로당,충청북도 옥천군 옥천읍 향수4길 7-23,충청북도 옥천군 옥천읍 하계리17-4,36.31392928,127.5810641,86.1
13,경로당,충청북도 옥천군 옥천읍 향수길 111,충청북도 옥천군 옥천읍 교동리314,36.31750235,127.5869473,69.12
14,경로당,충청북도 옥천군 옥천읍 동안2길11-1 ,충청북도 옥천군 옥천읍 동안리 75-23,36.31141262,127.5905822,77
15,경로당,충청북도 옥천군 옥천읍 수북길 11-2,충청북도 옥천군 옥천읍 수북리 118-1,36.31778076,127.6075903,99
16,경로당+무더위심터,충청북도 옥천군 옥천읍 수북1길 9-1,충청북도 옥천군 옥천읍 수북리 64-8,36.31618964,127.6082836,55.6
17,경로당,충청북도 옥천군 옥천읍 오대1길 39-1,충청북도 옥천군 옥천읍 오대리 704-5,36.33147522,127.6141107,49.92
18,경로당,충청북도 옥천군 옥천읍 매화길 26,충청북도 옥천군 옥천읍 매화리 141-23,36.30411147,127.5958001,135.45
19,경로당,충청북도 옥천군 옥천읍 서대구일로5길 34-6,충청북도 옥천군 옥천읍 구일리 639-1,36.29116567,127.5957416,85.23
20,경로당,충청북도 옥천군 옥천읍 서대구일로5길 27-7,충청북도 옥천군 옥천읍 구일리 630-1,36.2901219,127.5958009,42
21,경로당,충청북도 옥천군 옥천읍 서대구일로4길 37,충청북도 옥천군 옥천읍 구일리 201,36.28663228,127.598887,49.6
22,경로당,충청북도 옥천군 옥천읍 서대구일로3길 37,충청북도 옥천군 옥천읍 구일리 318-4,36.28212071,127.5965629,87.53
23,경로당,충청북도 옥천군 옥천읍 송신길 90,충청북도 옥천군 옥천읍 서대리 194,36.28545882,127.5821607,82.45
24,경로당,충청북도 옥천군 옥천읍 송신1길 6,충청북도 옥천군 옥천읍 서대리 178-1,36.2822554,127.5814206,86.68
25,경로당,충청북도 옥천군 옥천읍 서대구일로 65,충청북도 옥천군 옥천읍 서대리 377-2,36.27997939,127.5866243,76.16
26,경로당,충청북도 옥천군 옥천읍 청풍로 172 ,충청북도 옥천군 옥천읍 가풍리 855-4,36.2591546,127.5845778,244
27,경로당+무더위심터,충청북도 옥천군 옥천읍 원각1길 5-2 ,충청북도 옥천군 옥천읍 가풍리 223-2,36.26957404,127.5910679,79
28,경로당,충청북도 옥천군 옥천읍 삼청2길 283-1,충청북도 옥천군 옥천읍 삼청리 595,36.26377431,127.5733351,76
29,경로당,충청북도 옥천군 옥천읍 삼청2길 240 ,충청북도 옥천군 옥천읍 삼청리 409-5,36.26609835,127.5759087,34
30,경로당,충청북도 옥천군 옥천읍 삼청2길 246-4,충청북도 옥천군 옥천읍 삼청리 412-4,36.26571341,127.5758986,392.37
31,경로당,충청북도 옥천군 옥천읍 청풍로 367-64,충청북도 옥천군 옥천읍 삼청리 392,36.26828596,127.574747,49
32,경로당,충청북도 옥천군 옥천읍 삼청2길 173,충청북도 옥천군 옥천읍 삼청리 304-4,36.27153924,127.5772122,49
33,경로당,충청북도 옥천군 옥천읍 삼청1길 113,충청북도 옥천군 옥천읍 삼청리 822-1,36.27641537,127.5713685,84
34,경로당,충청북도 옥천군 옥천읍 삼청1길 185-1,충청북도 옥천군 옥천읍 삼청리 985-8,36.27445672,127.5659354,80.92
35,경로당,충청북도 옥천군 옥천읍 대천길 68,충청북도 옥천군 옥천읍 대천리 464-1,36.28776977,127.5632186,84.8
36,경로당,충청북도 옥천군 옥천읍 대천길 130,충청북도 옥천군 옥천읍 대천리 542-4,36.28258972,127.5611078,68.43
37,경로당,충청북도 옥천군 옥천읍 응천길14-4,충청북도 옥천군 옥천읍 대천리 352-6,36.28787043,127.5720642,89.97
38,경로당+무더위심터,충청북도 옥천군 옥천읍 마암로2길 23,충청북도 옥천군 옥천읍 마암리 108-9,36.29295693,127.5644831,141
39,경로당,충청북도 옥천군 옥천읍 마암로3길 66,충청북도 옥천군 옥천읍 마암리 180,36.28957818,127.5595874,99.62
40,경로당,충청북도 옥천군 옥천읍 마암로3길 127-29,충청북도 옥천군 옥천읍 마암리 343-1,36.28454813,127.5541957,99
41,경로당,"충청북도 옥천군 옥천읍 성신로 29-8, 현대연립 가-113",충청북도 옥천군 옥천읍 마암리 20,36.29527132,127.5690655,64
42,경로당+무더위심터,충청북도 옥천군 옥천읍 성암3길 12-7,충청북도 옥천군 옥천읍 마암리 43-19,36.29395337,127.5713491,47.88
43,경로당,"충청북도 옥천군 옥천읍 성암1길 30, 현대@",충청북도 옥천군 옥천읍 마암리 16,36.29551403,127.5704988,45
44,경로당,"충청북도 옥천군 옥천읍 마장로 20, 양우내안에@",충청북도 옥천군 옥천읍 마암리 487,36.29231191,127.5709654,90
45,경로당,충청북도 옥천군 옥천읍 양수로5길 6,충청북도 옥천군 옥천읍 양수리 195-4,36.29667531,127.5550628,49.2
46,경로당+무더위심터,충청북도 옥천군 옥천읍 양수로5길 6,충청북도 옥천군 옥천읍 양수리 195-4,36.29667531,127.5550628,64.8
47,경로당,충청북도 옥천군 옥천읍 양수로6길 40,충청북도 옥천군 옥천읍 양수리 258-1,36.29373041,127.5545837,63.74
48,경로당,충청북도 옥천군 옥천읍 양수로 49,충청북도 옥천군 옥천읍 양수리 110-1,36.29932121,127.5602493,47.46
49,경로당,"충청북도 옥천군 옥천읍 양수로 25-7, 지엘@",충청북도 옥천군 옥천읍 양수리 438,36.30059098,127.5628362,123.2
50,경로당,충청북도 옥천군 옥천읍 가화길 15,충청북도 옥천군 옥천읍 금구리 199-33,36.30231712,127.5632508,131.04
51,경로당+무더위심터,충청북도 옥천군 옥천읍 금장로 13,충청북도 옥천군 옥천읍 금구리 179-4,36.30272182,127.565717,60
52,경로당,"충청북도 옥천군 옥천읍 가화3길18, 현대@",충청북도 옥천군 옥천읍 금구리 235-1,36.30458151,127.5613531,76
53,경로당,"충청북도 옥천군 옥천읍 가화3길 8, 다산금빛@",충청북도 옥천군 옥천읍 금구리 235-26,36.30497485,127.5626797,75
54,경로당,"충청북도 옥천군 옥천읍 가화4길 65, 계룡리슈빌@",충청북도 옥천군 옥천읍 금구리 302,36/302015,127.561404,95.19
55,경로당,"충청북도 옥천군 옥천읍 삼금로5길 5-14, 공설시장4층",충청북도 옥천군 옥천읍 금구리 5-68,36.30251296,127.5679152,100.8
56,경로당+무더위심터,충청북도 옥천군 옥천읍 중앙로 20-3,충청북도 옥천군 옥천읍 금구리 149-6,36.29938251,127.568284,28.5
57,경로당+무더위심터,충청북도 옥천군 옥천읍 중앙로1길 25-6,충청북도 옥천군 옥천읍 금구리 263-59,36.29643861,127.5674731,83.68
58,경로당,충청북도 옥천군 옥천읍 대학1길 5-11,충청북도 옥천군 옥천읍 문정리 365-6,36.29997056,127.5740111,85.95
59,경로당,충청북도 옥천군 옥천읍 관성로3길 10,충청북도 옥천군 옥천읍 금구리 39-4,36.30118701,127.571972,48.5
60,경로당,충청북도 옥천군 옥천읍 신기2길 1,충청북도 옥천군 옥천읍 금구리 70-1,36.29755976,127.5713916,104
61,경로당,충청북도 옥천군 옥천읍 신기3길 13-3,충청북도 옥천군 옥천읍 금구리 59-11,36.29835991,127.5700897,83.72
62,경로당,충청북도 옥천군 옥천읍 상야1길 4,충청북도 옥천군 옥천읍 장야리 132-2,36.29404651,127.5849814,83.82
63,경로당,충청북도 옥천군 옥천읍 옥천동이로 34-3,충청북도 옥천군 옥천읍 장야리 241-5,36.29900325,127.5795018,44.84
64,경로당,"충청북도 옥천군 옥천읍 장야1길 10, 그린@",충청북도 옥천군 옥천읍 장야리 262-2,36.29906067,127.577431,27
65,경로당+무더위심터,"충청북도 옥천군 옥천읍 장야3길 9, 장야주공@ 1단지",충청북도 옥천군 옥천읍 장야리 313,36.29687453,127.5783208,76
66,경로당+무더위심터,"충청북도 옥천군 옥천읍 장야3길 10, 장야주공@ 2단지",충청북도 옥천군 옥천읍 장야리 311,36.2949927,127.5786189,76
67,경로당,"충청북도 옥천군 옥천읍 장야4길 51, 이안@ 101동",충청북도 옥천군 옥천읍 장야리 444,36.294886,127.580081,105.73
68,경로당,충청북도 옥천군 옥천읍 삼양로7길 9-1,충청북도 옥천군 옥천읍 삼양리 222-197,36.30340993,127.5679655,94.68
69,경로당,충청북도 옥천군 옥천읍 삼양로 54 ,충청북도 옥천군 옥천읍 삼양리 220-10,36.30583375,127.5670118,112
70,경로당,충청북도 옥천군 옥천읍 삼양로2길 14-3 202호,충청북도 옥천군 옥천읍 삼양리 46-7,36.30906588,127.5645218,51.26
71,경로당,충청북도 옥천군 옥천읍 서정1길 10 ,충청북도 옥천군 옥천읍 서정리 261-4,36.31277022,127.5556212,78.1
72,경로당,충청북도 옥천군 옥천읍 서정2길 15 ,충청북도 옥천군 옥천읍 서정리 48-1,36.31390748,127.5569825,69.39
73,경로당,충청북도 옥천군 옥천읍 옥각길 16,충청북도 옥천군 옥천읍 옥각리 375-3,36.32012245,127.5562793,103.54
74,경로당,충청북도 옥천군 옥천읍 옥각2길 41-3,"충청북도 옥천군 옥천읍 옥각리 265, 옥각리 266",36.32691813,127.5596109,86.4
75,경로당+무더위심터,충청북도 옥천군 동이면 평산2길 28,충청북도 옥천군 동이면 평산리 755,36.28499855,127.6143385,82.2
76,경로당+무더위심터,충청북도 옥천군 동이면 평산길 41,충청북도 옥천군 동이면 평산리 805-2,36.28296795,127.6165947,173.62
77,경로당+무더위심터,충청북도 옥천군 동이면 평산1길 31-1,충청북도 옥천군 동이면 평산리 668-6,36.28847878,127.6176313,96
78,경로당+무더위심터,충청북도 옥천군 동이면 세산2길 6,충청북도 옥천군 동이면 세산리 1049-3,36.271427,127.6049012,68.13
79,경로당,충청북도 옥천군 동이면 세산2길 74,충청북도 옥천군 동이면 세산리 581,36.26593765,127.6061132,88.2
80,경로당,충청북도 옥천군 동이면 세산3길 52-1,충청북도 옥천군 동이면 세산리 1031,36.275503,127.6028546,
81,경로당+무더위심터,충청북도 옥천군 동이면 세산4길 11,충청북도 옥천군 동이면 세산리 323-1,36.27037537,127.6144567,82.98
82,경로당,충청북도 옥천군 동이면 세산5길 13,충청북도 옥천군 동이면 세산리 188,36.27201273,127.615628,79.24
83,경로당,충청북도 옥천군 동이면 옥천동이로 653,충청북도 옥천군 동이면 적하리 1205-3,36.277792,127.6292675,129.01
84,경로당,충청북도 옥천군 동이면 적하1길 13-14,"충청북도 옥천군 동이면 적하리 1211, 1212-4, 1213, 1212-6",36.27985235,127.6283082,69
85,경로당+무더위심터,충청북도 옥천군 동이면 적하3길 24,충청북도 옥천군 동이면 적하리 656,36.27774065,127.6360935,74.41
86,경로당,충청북도 옥천군 동이면 적하2길 39-18,충청북도 옥천군 동이면 적하리 838-1,36.27261413,127.6349933,70.2
87,경로당,충청북도 옥천군 동이면 적하4길 28,충청북도 옥천군 동이면 적하리 523-2,36.27137567,127.6390317,89.98
88,경로당,충청북도 옥천군 동이면 적하길 151,충청북도 옥천군 동이면 적하리 472-3,36.27281662,127.6415957,99.99
89,경로당,충청북도 옥천군 동이면 금암3길 5-3,충청북도 옥천군 동이면 금암리 61,36.29044933,127.6409947,65.6
90,경로당,충청북도 옥천군 동이면 옥천동이로 783,충청북도 옥천군 동이면 금암리 433-2,36.28585636,127.6380887,83
91,경로당,충청북도 옥천군 동이면 금암4길 69-14,충청북도 옥천군 동이면 금암리 549-14,36.29304637,127.6356697,49
92,경로당,충청북도 옥천군 동이면 금암4길 67-3,충청북도 옥천군 동이면 금암리 590-6,36.29361272,127.6353043,103.76
93,경로당,충청북도 옥천군 동이면 금암6길 135-2,충청북도 옥천군 동이면 금암리 896-2,36.29160335,127.6304388,72.4
94,경로당,충청북도 옥천군 동이면 조령2길 6,충청북도 옥천군 동이면 조령리 601-5,36.28017667,127.6710722,67.1
95,경로당,충청북도 옥천군 동이면 조령1길 4,충청북도 옥천군 동이면 조령리 112-3,36.29050477,127.6909389,89.26
96,경로당,충청북도 옥천군 동이면 청마1길 43-5,충청북도 옥천군 동이면 청마리 870-1,36.30503631,127.6609416,81.34
97,경로당,충청북도 옥천군 동이면 청마2길 50-8,충청북도 옥천군 동이면 청마리 276,36.30970209,127.6874082,85.6
98,경로당,충청북도 옥천군 동이면 우산로3길 63,충청북도 옥천군 동이면 우산리 683-1,36.27138405,127.6886616,79.2
99,경로당,충청북도 옥천군 동이면 우산로2길 48,충청북도 옥천군 동이면 우산리 801-1,36.27724408,127.6838616,97.39
100,경로당,충청북도 옥천군 동이면 우산로1길 153-2,충청북도 옥천군 동이면 우산리 522,36.26783545,127.6721172,83.85
101,경로당,충청북도 옥천군 동이면 지양2길 90-1,충청북도 옥천군 동이면 지양리 610-3,36.3056059,127.62752,91.53
102,경로당,충청북도 옥천군 동이면 지양1길 113-2,충청북도 옥천군 동이면 지양리 484-3,36.31558973,127.6335107,71.74
103,경로당,충청북도 옥천군 동이면 안터1길 14,충청북도 옥천군 동이면 석탄리 610-3,36.31925297,127.6208711,63
104,경로당,충청북도 옥천군 동이면 선사로 309,충청북도 옥천군 동이면 석탄리 471-2,36.31002282,127.62231,99.92
105,경로당,충청북도 옥천군 동이면 선사로 83,충청북도 옥천군 동이면 남곡리 294,36.30991721,127.6114647,348.9
106,경로당,충청북도 옥천군 동이면 남곡3길 17,충청북도 옥천군 동이면 남곡리 459-2,36.30577311,127.6029061,81.08
107,경로당+무더위심터,충청북도 옥천군 안남면 연주2길 9,충청북도 옥천군 안남면 연주리 41-8,36.35683288,127.6746648,97.15
108,경로당+무더위심터,충청북도 옥천군 안남면 연주길 150,충청북도 옥천군 안남면 연주리 635-8,36.34865451,127.6670823,57.1
109,경로당+무더위심터,충청북도 옥천군 안남면 연주길 70,충청북도 옥천군 안남면 연주리 418-17,36.35424391,127.6722061,82.5
110,경로당+무더위심터,충청북도 옥천군 안남면 종미3길 106,충청북도 옥천군 안남면 종미리 515-1,36.34082055,127.6704889,51
111,경로당+무더위심터,충청북도 옥천군 안남면 종미1길 41,충청북도 옥천군 안남면 종미리554-6,36.34452028,127.6743327,230.75
112,경로당+무더위심터,충청북도 옥천군 안남면 지수1길 212-1,충청북도 옥천군 안남면 지수리 425-2,36.34124707,127.6839274,118.34
113,경로당+무더위심터,충청북도 옥천군 안남면 지수2길 6,충청북도 옥천군 안남면 지수리 146-1,36.3460435,127.6894655,99.16
114,경로당+무더위심터,충청북도 옥천군 안남면 안남로 919,충청북도 옥천군 안남면 지수리 1121-2,36.32334172,127.683364,84
115,경로당+무더위심터,충청북도 옥천군 안남면 지수3길 26,충청북도 옥천군 안남면 지수리 753,36.33326461,127.6842972,147.58
116,경로당+무더위심터,충청북도 옥천군 안남면 도덕2길 64,충청북도 옥천군 안남면 도덕리 715-1,36.35398559,127.6826735,145.12
117,경로당,충청북도 옥천군 안남면 도덕2길 15-3,충청북도 옥천군 안남면 도덕리 817,36.3540357,127.6776847,32.4
118,경로당,충청북도 옥천군 안남면 도덕3길 1-2,충청북도 옥천군 안남면 도덕리 326-11,36.3595297,127.6867637,106.12
119,경로당+무더위심터,충청북도 옥천군 안남면 도덕1길 85,충청북도 옥천군 안남면 도덕리 632-1,36.35176385,127.6850689,60
120,경로당+무더위심터,충청북도 옥천군 안남면 청정1길 27-7,충청북도 옥천군 안남면 청정리 253-1,36.3643275,127.6766522,98.56
121,경로당,충청북도 옥천군 안남면 청정2길 3,충청북도 옥천군 안남면 청정리 433-16,36.36826087,127.6829412,72
122,경로당,충청북도 옥천군 안남면 청정3길 29-8,충청북도 옥천군 안남면 청정리 536-3,36.36877434,127.6862605,86.56
123,경로당+무더위심터,충청북도 옥천군 안남면 화학2길 17,충청북도 옥천군 안남면 화학리 479,36.37580711,127.672771,84.36
124,경로당,충청북도 옥천군 안남면 화학3길 29,충청북도 옥천군 안남면 화학리 422-4,36.37868191,127.6705576,167.15
125,경로당,충청북도 옥천군 안남면 화학1길 35-6,충청북도 옥천군 안남면 화학리 557-2,36.37069537,127.6730295,94.2
126,경로당+무더위심터,충청북도 옥천군 안남면 화학4길 88,충청북도 옥천군 안남면 화학리 107-4,36.37783625,127.6827298,154.06
127,경로당+무더위심터,충청북도 옥천군 안남면 도농2길 34,충청북도 옥천군 안남면 도농리 640-1,36.37632861,127.6944247,89.41
128,경로당+무더위심터,충청북도 옥천군 안남면 도농1길 88-10,충청북도 옥천군 안남면 도농리 876-6,36.38338105,127.6909463,84.14
129,경로당+무더위심터,충청북도 옥천군 안남면 도농4길 3,충청북도 옥천군 안남면 도농리 361-1,36.36570127,127.7010888,158.96
130,경로당+무더위심터,충청북도 옥천군 안내면 현리길 84,충청북도 옥천군 안내면 현리 113-3,36.39399724,127.6598807,131.81
131,경로당,충청북도 옥천군 안내면 현리5길 15,충청북도 옥천군 안내면 현리 377-3,36.3931978,127.6486836,77.76
132,경로당+무더위심터,충청북도 옥천군 안내면 현리길 131,충청북도 옥천군 안내면 현리 462-2,36.39164176,127.6554353,79.14
133,경로당+무더위심터,충청북도 옥천군 안내면 정방2길 8,충청북도 옥천군 안내면 정방리 156-4,36.39733492,127.6699047,101.65
134,경로당+무더위심터,충청북도 옥천군 안내면 정방1길 21,충청북도 옥천군 안내면 정방리 206-3,36.39358458,127.6718147,94.41
135,경로당+무더위심터,충청북도 옥천군 안내면 도이길 75,충청북도 옥천군 안내면 도이리 161-3,36.4036014,127.6749898,99.63
136,경로당+무더위심터,충청북도 옥천군 안내면 동대1길 15-2,충청북도 옥천군 안내면 동대리 157-1,36.40881959,127.6700174,135.94
137,경로당+무더위심터,충청북도 옥천군 안내면 동대5길 39-1,충청북도 옥천군 안내면 동대리 337-1,36.41377266,127.6677878,70.8
138,경로당+무더위심터,충청북도 옥천군 안내면 동대4길 19,충청북도 옥천군 안내면 동대리 232-1,36.41224034,127.6715628,69.31
139,경로당+무더위심터,충청북도 옥천군 안내면 서대1길 22,충청북도 옥천군 안내면 서대리 540,36.40902809,127.6615699,84
140,경로당+무더위심터,충청북도 옥천군 안내면 방하목로 79,충청북도 옥천군 안내면 서대리 366-5,36.41163629,127.6637795,99.6
141,경로당+무더위심터,충청북도 옥천군 안내면 오덕2길 18-1,충청북도 옥천군 안내면 오덕리 369-6,36.39252327,127.7173442,89.84
142,경로당+무더위심터,충청북도 옥천군 안내면 오덕1길 27-4,충청북도 옥천군 안내면 오덕리 732-1,36.39600979,127.6960305,108
143,경로당+무더위심터,충청북도 옥천군 안내면 인포1길 11,충청북도 옥천군 안내면 인포리 283-43,36.37591281,127.6547532,96.15
144,경로당+무더위심터,충청북도 옥천군 안내면 인포2길 67-6,충청북도 옥천군 안내면 인포리 67-5,36.37187808,127.6601514,53.22
145,경로당+무더위심터,충청북도 옥천군 안내면 장계1길 1-7,충청북도 옥천군 안내면 장계리 78-1,36.37254155,127.6335144,82.82
146,경로당+무더위심터,충청북도 옥천군 안내면 방하목로1길 25,충청북도 옥천군 안내면 방하목리 154,36.43314138,127.6659806,76
147,경로당+무더위심터,충청북도 옥천군 안내면 도율길 9,충청북도 옥천군 안내면 도율리 261,36.39945368,127.6429062,213.46
148,경로당+무더위심터,충청북도 옥천군 안내면 안내수한로 291,충청북도 옥천군 안내면 도율리 137,36.40999986,127.6421453,131.8
149,경로당+무더위심터,충청북도 옥천군 안내면 월외2길 4,충청북도 옥천군 안내면 월외리 315-1,36.42488121,127.6450948,113.82
150,경로당+무더위심터,충청북도 옥천군 안내면 용촌2길 16,충청북도 옥천군 안내면 용촌리 68-2,36.42727909,127.6281423,67.86
151,경로당,충청북도 옥천군 안내면 용촌1길 4-2,충청북도 옥천군 안내면 용촌리 268-1,36.41507794,127.6250283,82.18
152,경로당+무더위심터,충청북도 옥천군 안내면 답양2길 11,충청북도 옥천군 안내면 답양리 288-3,36.39702275,127.6072423,120.1
153,경로당+무더위심터,충청북도 옥천군 청성면 산계길 42,충청북도 옥천군 청성면 산계리 217-1,36.32663044,127.7599163,97.5
154,경로당+무더위심터,충청북도 옥천군 청성면 산계길 81,충청북도 옥천군 청성면 산계리 166-1,36.32970857,127.7592878,97.2
155,경로당+무더위심터,충청북도 옥천군 청성면 산계2길 102,충청북도 옥천군 청성면 산계리 633,36.32633501,127.7514837,72.8
156,경로당+무더위심터,충청북도 옥천군 청성면 거포3길 8,충청북도 옥천군 청성면 거포리 589-2,36.33129461,127.7371491,50.49
157,경로당,충청북도 옥천군 청성면 거포2길 17,충청북도 옥천군 청성면 거포리 361-7,36.33394886,127.7391957,83.36
158,경로당+무더위심터,충청북도 옥천군 청성면 장수로1길 44,충청북도 옥천군 청성면 장수리 140,36.31436099,127.7456573,150.42
159,경로당+무더위심터,충청북도 옥천군 청성면 장수로2길 36-1,충청북도 옥천군 청성면 장수리 535,36.30599889,127.735463,84.64
160,경로당+무더위심터,충청북도 옥천군 청성면 장수로 552-3,충청북도 옥천군 청성면 장수리 319-1,36.32315792,127.7244445,66.5
161,경로당+무더위심터,충청북도 옥천군 청성면 궁촌길 19-2,충청북도 옥천군 청성면 궁촌리 330-1,36.30889987,127.7575791,97.92
162,경로당+무더위심터,충청북도 옥천군 청성면 소서길 34,충청북도 옥천군 청성면 소서리 36,36.3158212,127.7715627,182.01
163,경로당+무더위심터,충청북도 옥천군 청성면 소서길 243,충청북도 옥천군 청성면 소서리 400,36.30097532,127.7749545,108.8
164,경로당+무더위심터,충청북도 옥천군 청성면 삼남1길 23,충청북도 옥천군 청성면 삼남리 176-6,36.29603056,127.7540224,84.06
165,경로당,충청북도 옥천군 청성면 삼남2길 90-1,충청북도 옥천군 청성면 삼남리 561-1,36.28653655,127.7418708,83.13
166,경로당+무더위심터,충청북도 옥천군 청성면 조천길 213,충청북도 옥천군 청성면 조천리 283-1,36.28310888,127.7578205,84
167,경로당+무더위심터,충청북도 옥천군 청성면 묘금1길 127,충청북도 옥천군 청성면 묘금리 488-1,36.27658984,127.7130521,76.5
168,경로당+무더위심터,충청북도 옥천군 청성면 묘금3길 32,충청북도 옥천군 청성면 묘금리 66-5,36.27546426,127.7335857,84.95
169,경로당+무더위심터,충청북도 옥천군 청성면 묘금2길 39,충청북도 옥천군 청성면 묘금리 119-2,36.26930928,127.7146665,168
170,경로당+무더위심터,충청북도 옥천군 청성면 고당로3길 16-4,충청북도 옥천군 청성면 고당리 78-6,36.29753418,127.6949481,86.76
171,경로당+무더위심터,충청북도 옥천군 청성면 합금로1길 14,충청북도 옥천군 청성면 합금리 475-1,36.29449555,127.6730161,197.04
172,경로당,충청북도 옥천군 청성면 양저로1길 14,충청북도 옥천군 청성면 양저리 303,36.29420411,127.7169838,79.6
173,경로당+무더위심터,충청북도 옥천군 청성면 양저로 216-52,충청북도 옥천군 청성면 양저리 76,36.29308649,127.7241147,110.14
174,경로당+무더위심터,충청북도 옥천군 청성면 양저로 538-17,충청북도 옥천군 청성면 양저리 431-2,36.30459059,127.7045727,13.22
175,경로당+무더위심터,충청북도 옥천군 청성면 구음2길 16,충청북도 옥천군 청성면 구음리 368-2,36.32861235,127.7133803,74.4
176,경로당+무더위심터,충청북도 옥천군 청성면 구음1길 31,충청북도 옥천군 청성면 구음리 564-5,36.32485883,127.7149623,64.97
177,경로당+무더위심터,충청북도 옥천군 청성면 구음길 151,충청북도 옥천군 청성면 구음리 241-4,36.33289045,127.7134685,98.34
178,경로당+무더위심터,충청북도 옥천군 청성면 대안로2길 97,충청북도 옥천군 청성면 대안리 840,36.3537455,127.7170633,76
179,경로당+무더위심터,충청북도 옥천군 청성면 대안로3길 17-4,충청북도 옥천군 청성면 대안리 616-1,36.36479233,127.7211696,87.6
180,경로당+무더위심터,충청북도 옥천군 청성면 대안로4길 36-2,충청북도 옥천군 청성면 대안리 380,36.36444795,127.7269011,91.72
181,경로당+무더위심터,충청북도 옥천군 청성면 대안로5길 24-4,충청북도 옥천군 청성면 대안리 1096,36.3721285,127.7251972,82.76
182,경로당+무더위심터,충청북도 옥천군 청성면 도장3길 5,충청북도 옥천군 청성면 도장리 528-3,36.37445891,127.7335776,73.5
183,경로당+무더위심터,충청북도 옥천군 청성면 도장1길 49,충청북도 옥천군 청성면 도장리 110-1,36.37996955,127.7297689,96
184,경로당+무더위심터,충청북도 옥천군 청성면 능월3길 20,충청북도 옥천군 청성면 능월리 186-3,36.38079268,127.7366813,73.5
185,경로당+무더위심터,충청북도 옥천군 청성면 능월1길 67-21,충청북도 옥천군 청성면 능월리 480,36.38860232,127.7410707,85.7
186,경로당+무더위심터,충청북도 옥천군 청성면 능월2길 23,충청북도 옥천군 청성면 능월리 397-12,36.38912147,127.7319067,72
187,경로당+무더위심터,충청북도 옥천군 청성면 화성1길 14,충청북도 옥천군 청성면 화성리 176,36.34943013,127.7455104,89.7
188,경로당+무더위심터,충청북도 옥천군 청성면 화성2길 32-1,충청북도 옥천군 청성면 화성리 567-2,36.34338666,127.7374538,168
189,경로당+무더위심터,충청북도 옥천군 청성면 남부로 2843-11,충청북도 옥천군 청성면 화성리 286-5,36.34768433,127.7368346,56.42
190,경로당+무더위심터,충청북도 옥천군 청성면 장연길 172-1,충청북도 옥천군 청성면 장연리 328-1,36.3495345,127.7618798,70.5
191,경로당,충청북도 옥천군 청성면 장연길 447,충청북도 옥천군 청성면 장연리 55-1,36.36778801,127.7682737,93.58
192,경로당,충청북도 옥천군 청산면 백운길 20-7,충청북도 옥천군 청산면 백운리 311-1,36.34896237,127.7931229,105.5
193,경로당,충청북도 옥천군 청산면 지전길 32-13,충청북도 옥천군 청산면 지전리 31-4,36.34548095,127.7939755,52.8
194,경로당,충청북도 옥천군 청산면 지전2길 27,충청북도 옥천군 청산면 지전리 69-1,36.34670165,127.790525,247
195,경로당+무더위심터,충청북도 옥천군 청산면 지전2길 27,충청북도 옥천군 청산면 지전리 69-1,36.34670165,127.790525,84.42
196,경로당,충청북도 옥천군 청산면 교평길 26,충청북도 옥천군 청산면 교평리 264-4,36.34506459,127.7973229,114
197,경로당,충청북도 옥천군 청산면 교평길 26,충청북도 옥천군 청산면 교평리 264-4,36.34506459,127.7973229,114
198,경로당,충청북도 옥천군 청산면 하서1길 14,충청북도 옥천군 청산면 하서리 33,36.3460771,127.7831005,106.2
199,경로당,충청북도 옥천군 청산면 하서2길 14,충청북도 옥천군 청산면 하서리 370,36.34428188,127.7784842,66.75
200,경로당+무더위심터,충청북도 옥천군 청산면 신매길 15-2,충청북도 옥천군 청산면 신매리 363-7,36.31963719,127.7707639,98.4
201,경로당,충청북도 옥천군 청산면 대덕길 130-1,충청북도 옥천군 청산면 대덕리 255,36.30140701,127.7857321,85.62
202,경로당,충청북도 옥천군 청산면 신매길 200,충청북도 옥천군 청산면 대덕리 32,36.31378854,127.785305,132
203,경로당,충청북도 옥천군 청산면 장위길 124-1,충청북도 옥천군 청산면 장위리 410-1,36.32960145,127.7822424,145.11
204,경로당,충청북도 옥천군 청산면 장위3길 54-1,충청북도 옥천군 청산면 장위리 503,36.32467446,127.7854419,50
205,경로당,충청북도 옥천군 청산면 한곡길 50,충청북도 옥천군 청산면 한곡리 98-2,36.32077251,127.7928432,103.47
206,경로당,충청북도 옥천군 청산면 한곡1길 96,충청북도 옥천군 청산면 한곡리 369-3,36.31397732,127.7911558,94.6
207,경로당,충청북도 옥천군 청산면 인정길 130,충청북도 옥천군 청산면 인정리 583-1,36.32554052,127.7979525,90
208,경로당,충청북도 옥천군 청산면 판수2길 6,충청북도 옥천군 청산면 판수리 621,36.33195802,127.8092503,149.58
209,경로당,충청북도 옥천군 청산면 판수3길 48,충청북도 옥천군 청산면 판수리 539,36.32554039,127.8099748,88.83
210,경로당,충청북도 옥천군 청산면 효목2길 14,충청북도 옥천군 청산면 효목리 652-1,36.32381553,127.8178684,74.84
211,경로당,충청북도 옥천군 청산면 효목2길 169,충청북도 옥천군 청산면 효목리 858-2,36.31316589,127.824967,69.14
212,경로당,충청북도 옥천군 청산면 효목1길 69-9,충청북도 옥천군 청산면 효목리 143,36.32380951,127.8349527,79.78
213,경로당,충청북도 옥천군 청산면 의지길 255,충청북도 옥천군 청산면 의지리 136,36.32907577,127.8341669,74.25
214,경로당,충청북도 옥천군 청산면 의지1길 96,충청북도 옥천군 청산면 의지리 515-1,36.34123009,127.8304408,100.84
215,경로당,충청북도 옥천군 청산면 예곡1길 43,충청북도 옥천군 청산면 예곡리 371-6,36.35439268,127.8233706,74.3
216,경로당+무더위심터,충청북도 옥천군 청산면 예곡2길 8,충청북도 옥천군 청산면 예곡리 142-3,36.35519679,127.8307906,99.1
217,경로당,충청북도 옥천군 청산면 팔음로 337-3,충청북도 옥천군 청산면 삼방리 23-12,36.35541077,127.8470192,42
218,경로당,충청북도 옥천군 청산면 삼방길 12,충청북도 옥천군 청산면 삼방리 283,36.34110402,127.8493148,100
219,경로당,충청북도 옥천군 청산면 팔음로 502,충청북도 옥천군 청산면 명티리 276-6,36.35473862,127.8610737,75.5
220,경로당,충청북도 옥천군 청산면 법화갈전길 147,충청북도 옥천군 청산면 법화리 194-2,36.3662591,127.8420582,102.5
221,경로당,충청북도 옥천군 청산면 법화3길 81,충청북도 옥천군 청산면 법화리 53-2,36.36317473,127.8529075,54
222,경로당,충청북도 옥천군 청산면 대성길 1,충청북도 옥천군 청산면 대성리 159-3,36.37279993,127.8170877,143.17
223,경로당,충청북도 옥천군 청산면 만월로 368-13,충청북도 옥천군 청산면 만월리 577,36.38119611,127.7784868,77.18
224,경로당+무더위심터,충청북도 옥천군 청산면 만월로 1길 9,충청북도 옥천군 청산면 만월리 66-3,36.37623456,127.7892779,98.64
225,경로당,충청북도 옥천군 청산면 만월로1길 28,충청북도 옥천군 청산면 만월리 737-4,36.37675835,127.7894904,48.2
226,경로당+무더위심터,충청북도 옥천군 이원면 건진1길 26,충청북도 옥천군 이원면 건진리 363,36.25374821,127.6148358,215.63
227,경로당+무더위심터,충청북도 옥천군 이원면 건진3길 83,충청북도 옥천군 이원면 건진리 643-4,36.24881669,127.6081175,199.51
228,경로당+무더위심터,충청북도 옥천군 이원면 장찬길 376-18,충청북도 옥천군 이원면 장찬리 330,36.24589796,127.581413,65.67
229,경로당+무더위심터,충청북도 옥천군 이원면 강청4길 7-4,충청북도 옥천군 이원면 강청리 299-8,36.24102153,127.6107768,165.28
230,경로당+무더위심터,충청북도 옥천군 이원면 강청길 53,충청북도 옥천군 이원면 강청리 117-1,36.24410328,127.6130706,70.3
231,경로당+무더위심터,충청북도 옥천군 이원면 윤정1길 22,충청북도 옥천군 이원면 윤정리 99-4,36.23826516,127.6252765,83.38
232,경로당+무더위심터,충청북도 옥천군 이원면 윤정2길 96,충청북도 옥천군 이원면 윤정리 377-3,36.22588137,127.6187253,91.9
233,경로당+무더위심터,충청북도 옥천군 이원면 의평길 49,충청북도 옥천군 이원면 의평리 194-4,36.21327975,127.6254857,98.9
234,경로당+무더위심터,충청북도 옥천군 이원면 이원로 375,충청북도 옥천군 이원면 개심리 728-6,36.20652704,127.6307965,83
235,경로당+무더위심터,충청북도 옥천군 이원면 개심5길 17-1,충청북도 옥천군 이원면 개심리 957,36.19377419,127.6293545,232.41
236,경로당+무더위심터,충청북도 옥천군 이원면 평계1길 91-1,충청북도 옥천군 이원면 평계리 712-1,36.18835283,127.6438743,83.06
237,경로당+무더위심터,충청북도 옥천군 이원면 수묵2길 24,충청북도 옥천군 이원면 수묵리 254-1,36.19128014,127.6516544,65.52
238,경로당,충청북도 옥천군 이원면 수묵1길 33-1,충청북도 옥천군 이원면 수묵리 498,36.19562795,127.6435874,82.13
239,경로당+무더위심터,충청북도 옥천군 이원면 지정1길 5,충청북도 옥천군 이원면 지정리 356-3,36.2126001,127.6353169,91.3
240,경로당+무더위심터,충청북도 옥천군 이원면 미동3길 3,충청북도 옥천군 이원면 미동리 208-1,36.22266889,127.6374286,135.95
241,경로당+무더위심터,충청북도 옥천군 이원면 미동1길 84,충청북도 옥천군 이원면 미동리 361-1,36.23442297,127.6332957,119.5
242,경로당+무더위심터,충청북도 옥천군 이원면 이원4길 11,충청북도 옥천군 이원면 이원리 173-32,36.24134484,127.6347769,96.72
243,경로당+무더위심터,충청북도 옥천군 이원면 이원3길 42,충청북도 옥천군 이원면 이원리 199-1,36.24215972,127.6356875,129.4
244,경로당+무더위심터,충청북도 옥천군 이원면 이원2길 31-1,충청북도 옥천군 이원면 이원리 585-3,36.24413355,127.631438,84.71
245,경로당+무더위심터,충청북도 옥천군 이원면 원동1길 10,충청북도 옥천군 이원면 원동리 297-1,36.24174715,127.662693,119.62
246,경로당+무더위심터,충청북도 옥천군 이원면 원동3길 37,충청북도 옥천군 이원면 원동리 781,36.24165966,127.6567732,99.06
247,경로당,충청북도 옥천군 이원면 백지1길 31,충청북도 옥천군 이원면 백지리 425-4,36.23527569,127.6773038,72.42
248,경로당+무더위심터,충청북도 옥천군 이원면 백지2길 51,충청북도 옥천군 이원면 백지리 602-4,36.23286816,127.6795507,92
249,경로당,충청북도 옥천군 이원면 백지3길 44-3,충청북도 옥천군 이원면 백지리 831-2,36.23034441,127.6810402,92.84
250,경로당,충청북도 옥천군 이원면 지탄길 97,충청북도 옥천군 이원면 지탄리 968-7,36.24802677,127.6742658,85.23
251,경로당+무더위심터,충청북도 옥천군 이원면 지탄6길 6,충청북도 옥천군 이원면 지탄리 961-1,36.24729509,127.6854942,113.64
252,경로당+무더위심터,충청북도 옥천군 이원면 용방3길 92,충청북도 옥천군 이원면 용방리 160-1,36.25377249,127.6589867,159.05
253,경로당+무더위심터,충청북도 옥천군 이원면 용방2길 39,충청북도 옥천군 이원면 용방리 833,36.25289501,127.6422853,166.23
254,경로당+무더위심터,충청북도 옥천군 이원면 대흥3길 1-5,충청북도 옥천군 이원면 강청리 2-8,36.24778246,127.6244625,114.99
255,경로당+무더위심터,충청북도 옥천군 이원면 이원역길 28,충청북도 옥천군 이원면 강청리 52-4,36.24510778,127.6205426,200.56
256,경로당,충청북도 옥천군 이원면 이원역길 1-7,충청북도 옥천군 이원면 강청리 10-13,36.24521936,127.6241432,89.97
257,경로당+무더위심터,충청북도 옥천군 이원면 신흥3길 22,충청북도 옥천군 이원면 강청리 92-12,36.24583053,127.617948,157.95
258,경로당,충청북도 옥천군 이원면 지탄길 155,충청북도 옥천군 이원면 지탄리 904-1,36.2473452,127.6789368,58.65
259,경로당,충청북도 옥천군 이원면 윤정3길 11,충청북도 옥천군 이원면 윤정리 225-6,36.22672095,127.6263735,84.6
260,경로당,충청북도 옥천군 군서면 동평1길 7,충청북도 옥천군 군서면 동평리 491-10,36.2780858,127.5286121,48.88
261,경로당+무더위심터,충청북도 옥천군 군서면 동평1길 20,충청북도 옥천군 군서면 동평리 589-2,36.27885005,127.5293954,107.3
262,경로당,충청북도 옥천군 군서면 동평5길 17,충청북도 옥천군 군서면 동평리 410,36.26870616,127.5316102,85
263,경로당+무더위심터,충청북도 옥천군 군서면 동평4길 9-8,충청북도 옥천군 군서면 동평리 438-4,36.27301997,127.5277604,97.54
264,경로당+무더위심터,충청북도 옥천군 군서면 금산1길 20-3,충청북도 옥천군 군서면 금산리 451-4,36.26889938,127.5338983,82.36
265,경로당+무더위심터,충청북도 옥천군 군서면 금산3길 23,충청북도 옥천군 군서면 금산리 138-1,36.25067821,127.5468794,79.33
266,경로당,충청북도 옥천군 군서면 사정4길 3,충청북도 옥천군 군서면 사정리 313-4,36.26094555,127.520319,66
267,경로당,충청북도 옥천군 군서면 사정1길 18-5,충청북도 옥천군 군서면 사정리 75-1,36.26652297,127.5253291,86.1
268,경로당+무더위심터,충청북도 옥천군 군서면 상지1길 8-4,충청북도 옥천군 군서면 상지리 59,36.25405408,127.5121821,89.35
269,경로당,충청북도 옥천군 군서면 은행1길 23-6,충청북도 옥천군 군서면 은행리 246-5,36.27019195,127.5166817,90.3
270,경로당+무더위심터,충청북도 옥천군 군서면 은행3길 45,충청북도 옥천군 군서면 은행리 450-5,36.26479785,127.5161141,99.36
271,경로당,충청북도 옥천군 군서면 사양2길 4,충청북도 옥천군 군서면 사양리 430-1,36.27409284,127.5001611,94.54
272,경로당,충청북도 옥천군 군서면 상중길 92,충청북도 옥천군 군서면 상중리 326-3,36.28846046,127.5183369,83.74
273,경로당+무더위심터,충청북도 옥천군 군서면 상중1길 17,충청북도 옥천군 군서면 상중리 77,36.28667059,127.5226739,99
274,경로당+무더위심터,충청북도 옥천군 군서면 하동2길 11,충청북도 옥천군 군서면 하동리 103-4,36.29220098,127.5282832,85.68
275,경로당,충청북도 옥천군 군서면 하동2길 99,충청북도 옥천군 군서면 하동리 248-4,36.29424473,127.5195498,99.96
276,경로당+무더위심터,충청북도 옥천군 군서면 오동2길 172,충청북도 옥천군 군서면 오동리 559-4,36.30668836,127.5232505,67.22
277,경로당,충청북도 옥천군 군서면 성왕로 760,충청북도 옥천군 군서면 오동리 182-1,36.29823295,127.5315704,74.1
278,경로당+무더위심터,충청북도 옥천군 군서면 월전2길 85,충청북도 옥천군 군서면 월전리 169,36.30642249,127.5436132,110
279,경로당,충청북도 옥천군 군서면 상중길 209,충청북도 옥천군 군서면 상중리 473-1,36.29411053,127.5083156,84
280,경로당+무더위심터,충청북도 옥천군 군서면 사양1길 143,충청북도 옥천군 군서면 사양리 295-4,36.2794973,127.5050972,84.28
281,경로당,충청북도 옥천군 군서면 상지2길 127,충청북도 옥천군 군서면 상지리 207-2,36.24027879,127.5108644,65.16
282,경로당+무더위심터,충청북도 옥천군 군북면 이백3길15-7,충청북도 옥천군 군북면 이백리 362-22,36.33010286,127.5320261,174.98
283,경로당+무더위심터,충청북도 옥천군 군북면 이백1길 3-18,충청북도 옥천군 군북면 이백리 256-11,36.32896854,127.5364644,281.67
284,경로당+무더위심터,충청북도 옥천군 군북면 자모2길20-1,충청북도 옥천군 군북면 자모리 86-5,36.33002233,127.5133486,68.82
285,경로당+무더위심터,충청북도 옥천군 군북면 자모길186-1,충청북도 옥천군 군북면 자모리 350-24,36.32391934,127.5095522,86.4
286,경로당+무더위심터,충청북도 옥천군 군북면 증약1길10-7,충청북도 옥천군 군북면 증약리 754-8,36.33867524,127.5160816,273.1
287,경로당,충청북도 옥천군 군북면 감로길 30,충청북도 옥천군 군북면 증약리 248,36.34764621,127.5268853,109.89
288,경로당+무더위심터,충청북도 옥천군 군북면 비야대정로2길38,충청북도 옥천군 군북면 증약리 332-1,36.35580053,127.5288216,200.03
289,경로당,충청북도 옥천군 군북면 항곡길22,충청북도 옥천군 군북면 항곡리 132-12,36.37349779,127.5318766,86.1
290,경로당,충청북도 옥천군 군북면 방아실길73,"충청북도 옥천군 군북면 대정리 524-1, 526-3",36.39110136,127.543973,229.64
291,경로당,충청북도 옥천군 군북면 방아실길125-10,충청북도 옥천군 군북면 대정리 220-1,36.39029337,127.5472501,94.15
292,경로당,충청북도 옥천군 군북면 대정2길18,충청북도 옥천군 군북면 대정리 754-1,36.38945748,127.5306267,89.46
293,경로당,충청북도 옥천군 군북면 방아실길3-6,충청북도 옥천군 군북면 대정리 553-3,36.38869516,127.5378861,250.2
294,경로당+무더위심터,충청북도 옥천군 군북면 비야대정로 739,충청북도 옥천군 군북면 대정리 643,36.38501141,127.5409135,93.7
295,경로당+마을회관,충청북도 옥천군 군북면 비야대정로 691-2,충청북도 옥천군 군북면 대정리 663-8,36.38217661,127.538241,45.36
296,경로당+무더위심터,충청북도 옥천군 군북면 환산로 307-3,충청북도 옥천군 군북면 환평리 184-2,36.34215348,127.5510043,165.17
297,경로당+무더위심터,충청북도 옥천군 군북면 추소길28,충청북도 옥천군 군북면 추소리 519,36.34805578,127.5578795,100
298,경로당+무더위심터,충청북도 옥천군 군북면 지오2길 23,충청북도 옥천군 군북면 지오리 502-2,36.3288384,127.5658974,249.85
299,경로당+무더위심터,충청북도 옥천군 군북면 지오3길 18-3,충청북도 옥천군 군북면 지오리 295-6,36.33831673,127.5737598,128.31
300,경로당+무더위심터,충청북도 옥천군 군북면 이평1길 327,충청북도 옥천군 군북면 이평리 100,36.3543538,127.5739896,84
301,경로당,충청북도 옥천군 군북면 이평2길 92,충청북도 옥천군 군북면 이평리 555-1,36.38216437,127.5581104,87.27
302,경로당+무더위심터,충청북도 옥천군 군북면 석호1길74,충청북도 옥천군 군북면 석호리 505,36.36093925,127.5819636,147.69
303,경로당,충청북도 옥천군 군북면 석호길 419,충청북도 옥천군 군북면 석호리 84-2,36.37820434,127.5940563,88.45
304,경로당,충청북도 옥천군 군북면 국원1길11,충청북도 옥천군 군북면 국원리 108-12,36.33963111,127.5895664,92.64
305,경로당+무더위심터,충청북도 옥천군 군북면 국원2길1,충청북도 옥천군 군북면 국원리 232-1,36.35048159,127.5909409,182.04
306,경로당,충청북도 옥천군 군북면 국원3길45-2,충청북도 옥천군 군북면 국원리 250,36.35098059,127.5858476,87.2
307,경로당,충청북도 옥천군 군북면 소정2길 1,충청북도 옥천군 군북면 소정리 384-1,36.35580814,127.5965555,239.52
308,경로당+무더위심터,충청북도 옥천군 군북면 성왕로 1900,충청북도 옥천군 군북면 소정리 73-4,36.3618466,127.6051182,94.79
309,경로당+무더위심터,충청북도 옥천군 군북면 답양막지길404,충청북도 옥천군 군북면 막지리 224-1,36.37500369,127.6068904,89.11
310,경로당+무더위심터,충청북도 옥천군 군북면 답양막지길205,충청북도 옥천군 군북면 막지리 641-1,36.38266541,127.6019661,126.79
311,마을회관,충청북도 옥천군 군북면 방아실길 75,충청북도 옥천군 군북면 대정리 526,36.39126448,127.54409,139.98
