연번,시도명,시군구명,읍면동명,시설명,상세주소,시설면적,경도,위도
1,충청남도,예산군,오가면,임성중학교,충청남도 예산군 오가면 역탑리 463-18,5547,126.785569,36.6896
2,충청남도,예산군,오가면,양신초등학교,충청남도 예산군 오가면 분천리 11-3,6370,126.784607,36.705964
3,충청남도,태안군,태안읍,종합운동장,충청남도 태안군 태안읍   217,16000,126.291653,36.765753
4,충청남도,태안군,태안읍,백화초,충청남도 태안군 태안읍 동문리 45-0,3902,126.307738,36.752404
5,충청남도,태안군,태안읍,태안여중 운동장,충청남도 태안군 태안읍 동문리 350-3,4768,126.306344,36.751627
6,충청남도,태안군,태안읍,태안중 운동장,충청남도 태안군 태안읍 동문리 300-0,9328,126.301005,36.753064
7,충청남도,태안군,태안읍,태안여고 운동장,충청남도 태안군 태안읍 남문리 416-0,5280,126.289126,36.759508
8,충청남도,태안군,태안읍,태안초 운동장,충청남도 태안군 태안읍 남문리 315-0,6325,126.295442,36.759004
9,충청남도,태안군,태안읍,송암초 운동장,충청남도 태안군 태안읍 송암리 765-1,6132,126.3004,36.735304
10,충청남도,태안군,태안읍,태안고 운동장,충청남도 태안군 태안읍 평천리 710-0,6574,126.317481,36.753902
11,충청남도,태안군,태안읍,화동초 운동장,충청남도 태안군 태안읍 평천리 679-8,3823,126.320375,36.753673
12,충청남도,태안군,안면읍,안면중 운동장,충청남도 태안군 안면읍 승언리 60-1,5319,126.354234,36.508891
13,충청남도,태안군,안면읍,안면고 운동장,충청남도 태안군 안면읍 승언리 60-27,7803,126.356038,36.509115
14,충청남도,태안군,안면읍,안면초 운동장,충청남도 태안군 안면읍 승언리 846-4,5949,126.347048,36.52768
15,충청남도,태안군,안면읍,창기중 운동장,충청남도 태안군 안면읍 창기리 1115-15,6207,126.333903,36.577229
16,충청남도,태안군,안면읍,안중초 운동장,충청남도 태안군 안면읍 중장리 653-0,4336,126.372249,36.473796
17,충청남도,태안군,고남면,고남초 운동장,충청남도 태안군 고남면 고남리 1609-0,3050,126.404075,36.42625
18,충청남도,태안군,남면,남면초 운동장,충청남도 태안군 남면 달산리 1174-2,3109,126.299798,36.673229
19,충청남도,태안군,남면,삼성초 운동장,충청남도 태안군 남면 신온리 374-0,4107,126.311535,36.621898
20,충청남도,태안군,근흥면,안흥초 운동장,충청남도 태안군 근흥면   823-2,5792,126.174829,36.69979
21,충청남도,태안군,근흥면,근흥중 운동장,충청남도 태안군 근흥면 용신리 409-6,7178,126.229064,36.716288
22,충청남도,태안군,근흥면,근흥초 운동장,충청남도 태안군 근흥면 용신리 447-0,3127,126.228053,36.714479
23,충청남도,태안군,근흥면,안흥초 신진도분교,충청남도 태안군 근흥면 신진도리 85-0,1191,126.139291,36.682804
24,충청남도,태안군,소원면,시목초 운동장,충청남도 태안군 소원면 시목리 288-0,3300,126.24501,36.768543
25,충청남도,태안군,소원면,만리포중 운동장,충청남도 태안군 소원면 신덕리 631-2,5554,126.194075,36.765564
26,충청남도,태안군,소원면,만리포고 운동장,충청남도 태안군 소원면 신덕리 180-0,6894,126.19106,36.759923
27,충청남도,태안군,소원면,소원초 운동장,충청남도 태안군 소원면 신덕리 223-0,5271,126.193482,36.763627
28,충청남도,태안군,소원면,소원초 의향분교,충청남도 태안군 소원면 의항리 337-0,3003,126.16069,36.829721
29,충청남도,태안군,소원면,모항초 운동장,충청남도 태안군 소원면 모항리 344-0,2883,126.13988,36.772974
30,충청남도,태안군,원북면,원북초 운동장,충청남도 태안군 원북면 반계리 222-0,4468,126.258571,36.825555
31,충청남도,태안군,원북면,원북초 방갈분교,충청남도 태안군 원북면 방갈리 202-0,3593,126.212362,36.873562
32,충청남도,태안군,원북면,대기초 운동장,충청남도 태안군 원북면 대기리 15-1,3400,126.256997,36.80005
33,충청남도,태안군,이원면,이원초 관동분교,충청남도 태안군 이원면 관리 572-3,2679,126.299665,36.900794
34,충청남도,태안군,이원면,이원초 운동장,충청남도 태안군 이원면 포지리 44-0,3786,126.281324,36.868642
35,충청남도,예산군,신암면,조림초등학교,충청남도 예산군 신암면 조곡리 158-8,3957,126.785229,36.738241
36,충청남도,예산군,신암면,신암중학교,충청남도 예산군 신암면 오산리 1-4,6970,126.813339,36.739263
37,충청남도,예산군,오가면,오가초등학교,충청남도 예산군 오가면 역탑리 242-1,7047,126.794117,36.687543
38,충청남도,예산군,고덕면,구만초등학교,충청남도 예산군 고덕면 구만리 813-4,9350,126.732818,36.732792
39,충청남도,예산군,신암면,신암초등학교,충청남도 예산군 신암면 종경리 215-2,4680,126.82062,36.732424
40,충청남도,예산군,봉산면,덕산중학교,충청남도 예산군 봉산면 효교리 405-46,6019,126.683251,36.716646
41,충청남도,예산군,봉산면,덕산고등학교,충청남도 예산군 봉산면 효교리 405-2,10040,126.683336,36.71762
42,충청남도,예산군,고덕면,고덕초등학교,충청남도 예산군 고덕면 대천리 650-4,5380,126.702746,36.747463
43,충청남도,예산군,고덕면,고덕중학교,충청남도 예산군 고덕면 대천리 692-0,6896,126.699177,36.745333
44,충청남도,예산군,고덕면,예덕초등학교,충청남도 예산군 고덕면 몽곡리 74-1,4300,126.716403,36.77797
45,충청남도,예산군,광시면,웅산초등학교,충청남도 예산군 광시면 광시리 76-0,4812,126.773819,36.550639
46,충청남도,예산군,광시면,광시중학교,충청남도 예산군 광시면 하장대리 1-3,6116,126.771722,36.548228
47,충청남도,예산군,대흥면,대흥초등학교,충청남도 예산군 대흥면 동서리 82-1,4187,126.790348,36.607337
48,충청남도,예산군,대흥면,대흥중고등학교,충청남도 예산군 대흥면 상중리 231-0,4365,126.792262,36.604978
49,충청남도,예산군,응봉면,평촌초등학교,충청남도 예산군 응봉면 평촌리 156-3,3918,126.786079,36.634365
50,충청남도,예산군,응봉면,응봉초등학교,충청남도 예산군 응봉면 증곡리 436-0,6130,126.770328,36.655975
51,충청남도,예산군,덕산면,덕산초등학교,충청남도 예산군 덕산면 읍내리 348-1,8800,126.669108,36.706658
52,충청남도,예산군,덕산면,시량초등학교,충청남도 예산군 덕산면 시량리 223-0,4280,126.643759,36.685573
53,충청남도,예산군,덕산면,수덕초등학교,충청남도 예산군 덕산면 외라리 238-0,6560,126.604538,36.640045
54,충청남도,예산군,봉산면,봉산초등학교,충청남도 예산군 봉산면 구암리 2-0,3407,126.680399,36.748587
55,충청남도,예산군,신양면,신양중학교,충청남도 예산군 신양면   318,5213,126.870956,36.603915
56,충청남도,예산군,신양면,신양초등학교,충청남도 예산군 신양면 신양리 346-3,3865,126.869215,36.602092
57,충청남도,홍성군,금마면,금마중학교,충청남도 홍성군 금마면 화양리 306-2,3300,126.723273,36.620804
58,충청남도,홍성군,홍동면,홍동초등학교 운동장,충청남도 홍성군 홍동면 운월리 221-0,1872,126.688654,36.557194
59,충청남도,홍성군,홍동면,홍동중학교 운동장,충청남도 홍성군 홍동면 구정리 716-1,5257,126.692486,36.562549
60,충청남도,홍성군,장곡면,장곡초등학교 운동장,충청남도 홍성군 장곡면 도산리 479,2680,126.69308,36.50493
61,충청남도,홍성군,장곡면,장곡면 행정복지센터 주차장,충청남도 홍성군 장곡면 도산리 489-1,375,126.69122,36.505045
62,충청남도,홍성군,은하면,은하초등학교 운동장,충청남도 홍성군 은하면 대천리 108,16917,126.589202,36.528736
63,충청남도,홍성군,은하면,은하면사무소 주차장,충청남도 홍성군 은하면 대천리 238-2,1600,126.590393,36.531886
64,충청남도,홍성군,결성면,결성중학교 운동장,충청남도 홍성군 결성면 읍내리 29,7139,126.549865,36.528476
65,충청남도,홍성군,결성면,홍성공업고등학교 운동장,충청남도 홍성군 결성면 읍내리 527-1,2942,126.548497,36.530077
66,충청남도,홍성군,서부면,서부초등학교 운동장,충청남도 홍성군 서부면 이호리 235,5050,126.511239,36.579013
67,충청남도,홍성군,서부면,신당초등학교 운동장,충청남도 홍성군 서부면 남당리 664,2200,126.473627,36.547528
68,충청남도,홍성군,갈산면,갈산초등학교 운동장,충청남도 홍성군 갈산면 상촌리 70-0,5812,126.55452,36.602385
69,충청남도,홍성군,구항면,대정초등학교 운동장,충청남도 홍성군 구항면 지정리 55,3900,126.637679,36.547337
70,충청남도,예산군,예산읍,예산고등학교,충청남도 예산군 예산읍 예산리 741-2,6954,126.837698,36.681228
71,충청남도,예산군,예산읍,예산초등학교,충청남도 예산군 예산읍 예산리 742-1,4897,126.849766,36.683121
72,충청남도,예산군,예산읍,예산종합운동장,충청남도 예산군 예산읍 향천리 257-0,42786,126.861077,36.67737
73,충청남도,예산군,예산읍,예산중학교,충청남도 예산군 예산읍 주교리 350-0,9619,126.832752,36.678691
74,충청남도,예산군,예산읍,예산중앙초등학교,충청남도 예산군 예산읍 주교리 250-5,5100,126.831446,36.683679
75,충청남도,예산군,예산읍,금오초등학교,충청남도 예산군 예산읍 산성리 865-0,4255,126.83394,36.690408
76,충청남도,예산군,예산읍,예산여자중학교,충청남도 예산군 예산읍 발연리 135-5,6901,126.834939,36.699123
77,충청남도,예산군,예산읍,예산전자공업고등학교,충청남도 예산군 예산읍 관작리 315-7,7595,126.83821,36.713745
78,충청남도,예산군,예산읍,신례원초등학교,충청남도 예산군 예산읍 신례원리 256-2,7843,126.842592,36.72607
79,충청남도,예산군,삽교읍,삽교중학교,충청남도 예산군 삽교읍 두리 105-132,5879,126.749529,36.686776
80,충청남도,예산군,삽교읍,삽교고등학교,충청남도 예산군 삽교읍 두리 532-40,6323,126.747525,36.687548
81,충청남도,예산군,삽교읍,삽교초등학교,충청남도 예산군 삽교읍 두리 542-2,6070,126.743315,36.68845
82,충청남도,예산군,삽교읍,보성초등학교,충청남도 예산군 삽교읍 목리 288-0,3777,126.687312,36.6714
83,충청남도,예산군,삽교읍,용동초등학교,충청남도 예산군 삽교읍 상성리 95-1,4818,126.715595,36.702131
84,충청남도,예산군,대술면,대술중학교,충청남도 예산군 대술면 화천리 869-1,4807,126.891673,36.656472
85,충청남도,홍성군,홍북면,홍북초등학교 운동장,충청남도 홍성군 홍북면 대동리 48-3,4748,126.695096,36.650958
86,충청남도,홍성군,금마면,금마초등학교 운동장,충청남도 홍성군 금마면 부평리 108,6060,126.732906,36.613243
87,충청남도,홍성군,금마면,배양초등학교 운동장,충청남도 홍성군 금마면 죽림리 381-2,8698,126.709461,36.613761
88,충청남도,서천군,시초면,시초초등학교 운동장,충청남도 서천군 시초면 초현리 61-1,2480,126.751558,36.121899
89,충청남도,서천군,문산면,문산초등학교 운동장,충청남도 서천군 문산면 신농리 21-1,2220,126.751349,36.142647
90,충청남도,서천군,판교면,오성초등학교 운동장,충청남도 서천군 판교면 현암리 365,2089,126.683522,36.154866
91,충청남도,서천군,종천면,부내초등학교 운동장,충청남도 서천군 종천면 종천리 208-60,2398,126.646438,36.102569
92,충청남도,서천군,비인면,비인초등학교 운동장,충청남도 서천군 비인면 성내리 212-4,1930,126.602037,36.142163
93,충청남도,서천군,비인면,비인중학교 운동장,충청남도 서천군 비인면 성내리 151,3859,126.605812,36.139169
94,충청남도,서천군,서면,서면중학교,충청남도 서천군 서면 신합리 475-23,2145,126.549263,36.153801
95,충청남도,서천군,서면,서면초등학교 운동장,충청남도 서천군 서면 신합리 466-1,1513,126.555393,36.153388
96,충청남도,서천군,서면,서도초등학교 운동장,충청남도 서천군 서면 도둔리 677-2,2142,126.521294,36.153066
97,충청남도,홍성군,홍성읍,홍주고등학교 운동장,충청남도 홍성군 홍성읍 오관리 516-0,8063,126.662862,36.593476
98,충청남도,홍성군,홍성읍,홍주종합경기장,충청남도 홍성군 홍성읍 소향리 397-118,9328,126.643847,36.607451
99,충청남도,홍성군,광천읍,덕명초등학교 운동장,충청남도 홍성군 광천읍 신진리 402,4400,126.624739,36.505249
100,충청남도,홍성군,광천읍,광천읍 행정복지센터,충청남도 홍성군 광천읍 신진리 411-2,509,126.62508,36.50449
101,충청남도,서천군,한산면,한산중학교,충청남도 서천군 한산면 성외리 198-0,2740,126.804159,36.0919
102,충청남도,서천군,한산면,충남디자인예술고등학교,충청남도 서천군 한산면 성외리 144-0,5174,126.802726,36.089678
103,충청남도,서천군,마산면,마산초등학교 운동장,충청남도 서천군 마산면 마명리 353,3543,126.795175,36.120654
104,충청남도,서천군,마서면,송석초등학교 운동장,충청남도 서천군 마서면 송석리 45-2,2495,126.643912,36.073297
105,충청남도,서천군,마서면,마동초등학교 운동장,충청남도 서천군 마서면 송내리 419-1,2967,126.714927,36.024942
106,충청남도,서천군,화양면,화양초등학교 운동장,충청남도 서천군 화양면 봉명리 132-2,2806,126.776342,36.043455
107,충청남도,서천군,기산면,기산초등학교 운동장,충청남도 서천군 기산면 화산리 216,3346,126.767699,36.074075
108,충청남도,서천군,한산면,한산초등학교 운동장,충청남도 서천군 한산면 지현리 182-1,3057,126.804826,36.086295
109,충청남도,금산군,군북면,상곡초등학교 운동장,충청남도 금산군 군북면 상곡리 159-0,1310,127.57127,36.206412
110,충청남도,금산군,추부면,추부중학교 운동장,충청남도 금산군 추부면 마전리 407-0,4331,127.468853,36.192325
111,충청남도,부여군,부여읍,부여중학교 운동장,충청남도 부여군 부여읍 동남리 463-0,9000,126.913886,36.277329
112,충청남도,부여군,부여읍,부여초등학교 운동장,충청남도 부여군 부여읍 쌍북리 477-0,3800,126.92203,36.285739
113,충청남도,부여군,규암면,규암초등학교 운동장,충청남도 부여군 규암면 반산리 51-7,5000,126.880273,36.275385
114,충청남도,부여군,규암면,부여 종합운동장,충청남도 부여군 규암면 나복리 456,20000,126.863622,36.278795
115,충청남도,부여군,규암면,합송초등학교 운동장,충청남도 부여군 규암면 합송리 986-1,4200,126.845984,36.26606
116,충청남도,부여군,구룡면,용강중학교 운동장,충청남도 부여군 구룡면 태양리 340-0,6000,126.808108,36.251364
117,충청남도,부여군,세도면,세도중학교 운동장,충청남도 부여군 세도면 간대리 402-0,5200,126.943482,36.166808
118,충청남도,서천군,장항읍,장항초등학교 운동장,충청남도 서천군 장항읍 성주리 420-2,2275,126.701338,36.020146
119,충청남도,서천군,장항읍,장항중앙초등학교 운동장,충청남도 서천군 장항읍 신창리 45,6594,126.690994,36.012691
120,충청남도,서천군,장항읍,충남조선공업고등학교,충청남도 서천군 장항읍 화천리 330-0,3396,126.685462,36.015521
121,충청남도,서천군,장항읍,송림초등학교 운동장,충청남도 서천군 장항읍 옥산리 639-5,3118,126.683852,36.029402
122,충청남도,서천군,장항읍,장항중학교 운동장,충청남도 서천군 장항읍 원수리 923-19,3159,126.702637,36.007976
123,충청남도,서천군,서천읍,서천초등학교 운동장,충청남도 서천군 서천읍 군사리 724-1,2748,126.68848,36.078602
124,충청남도,서천군,서천읍,서천중학교 운동장,충청남도 서천군 서천읍 군사리 601,5473,126.69357,36.075239
125,충청남도,서천군,서천읍,서천고등학교 운동장,충청남도 서천군 서천읍 사곡리 203,5622,126.689479,36.08577
126,충청남도,서천군,마서면,서남초등학교 운동장,충청남도 서천군 마서면 봉남리 255,2345,126.679814,36.058401
127,충청남도,금산군,금성면,금성초등학교 운동장,충청남도 금산군 금성면 상가리 152-2,2658,127.454806,36.130519
128,충청남도,금산군,금성면,금성초등학교(금계분교) 운동장,충청남도 금산군 금성면 하신리 240-2,1658,127.479387,36.16096
129,충청남도,금산군,군북면,용문초등학교 운동장,충청남도 금산군 군북면 내부리 367-0,2350,127.502419,36.134451
130,충청남도,금산군,군북면,군북초등학교 운동장,충청남도 금산군 군북면 두두리 355-1,1540,127.526788,36.168063
131,충청남도,당진시,읍내동,계성초등학교운동장,충청남도 당진시 읍내동   13-0,2765,126.638619,36.898593
132,충청남도,당진시,채운동,탑동초등학교운동장,충청남도 당진시 채운동   488-1,2403,126.623105,36.89718
133,충청남도,당진시,사기소동,성당초등학교운동장,충청남도 당진시 사기소동   644-5,3285,126.604483,36.836652
134,충청남도,당진시,원당동,원당초등학교운동장,충청남도 당진시 원당동   1171-0,1950,126.639183,36.902222
135,충청남도,금산군,금산읍,금산동초등학교 운동장,충청남도 금산군 금산읍 중도리 102-0,3726,127.498762,36.103994
136,충청남도,금산군,금산읍,금산중고등학교 운동장,충청남도 금산군 금산읍 중도리 166-0,2750,127.495292,36.106956
137,충청남도,금산군,금산읍,금산산업고등학교 운동장,충청남도 금산군 금산읍 아인리 107-0,5158,127.479295,36.104089
138,충청남도,금산군,금산읍,금산여자중학교 운동장,충청남도 금산군 금산읍 아인리 26-0,3410,127.483061,36.105596
139,충청남도,금산군,금산읍,금산중앙초등학교 운동장,충청남도 금산군 금산읍 상옥리 137-1,3970,127.487167,36.101445
140,충청남도,계룡시,엄사면,신도초등학교 운동장,충청남도 계룡시 엄사면 엄사리 232-92,4916,127.235929,36.282206
141,충청남도,계룡시,엄사면,엄사초등학교 운동장,충청남도 계룡시 엄사면 엄사리 286,4368,127.23758,36.286384
142,충청남도,계룡시,금암동,금암초등학교 운동장,충청남도 계룡시 금암동   191,3529,127.246092,36.270787
143,충청남도,계룡시,금암동,계룡중학교 운동장,충청남도 계룡시 금암동   75-1,14287,127.25524,36.267733
144,충청남도,당진시,합덕읍,합도초등학교운동장,충청남도 당진시 합덕읍 운산리 685-1,3175,126.75473,36.81026
145,충청남도,당진시,합덕읍,합덕초등학교운동장,충청남도 당진시 합덕읍 운산리 3-8,4468,126.77927,36.80481
146,충청남도,당진시,합덕읍,신촌초등학교운동장,충청남도 당진시 합덕읍 신리 273-1,3696,126.764425,36.76343
147,충청남도,당진시,송악읍,기지초등학교운동장,충청남도 당진시 송악읍 기지시리 153-0,2295,126.693691,36.902852
148,충청남도,당진시,송악읍,송악초등학교운동장,충청남도 당진시 송악읍 중흥리 257-0,3191,126.743649,36.940228
149,충청남도,당진시,송악읍,상록초등학교운동장,충청남도 당진시 송악읍 부곡리 187-8,3170,126.768942,36.958984
150,충청남도,당진시,고대면,고대초등학교운동장,충청남도 당진시 고대면 진관리 770-2,4226,126.593971,36.936739
151,충청남도,당진시,석문면,석문초등학교운동장,충청남도 당진시 석문면 통정리 594-0,3285,126.58907,36.987007
152,충청남도,당진시,석문면,삼봉초등학교운동장,충청남도 당진시 석문면 삼봉리 960-0,2473,126.539496,37.013097
153,충청남도,당진시,석문면,초락초등학교운동장,충청남도 당진시 석문면 초락도리 210-3,1141,126.510284,36.993388
154,충청남도,당진시,대호지면,조금초등학교운동장,충청남도 당진시 대호지면 조금리 355-0,1958,126.500477,36.90121
155,충청남도,당진시,정미면,정미초등학교운동장,충청남도 당진시 정미면 매방리 124-0,2987,126.554075,36.856586
156,충청남도,당진시,정미면,천의초등학교운동장,충청남도 당진시 정미면 천의리 336-0,3394,126.57186,36.877634
157,충청남도,당진시,면천면,면천초등학교운동장,충청남도 당진시 면천면 성상리 995-3,3110,126.662952,36.817652
158,충청남도,당진시,순성면,순성초등학교운동장,충청남도 당진시 순성면 봉소리 59-0,2695,126.71115,36.842803
159,충청남도,당진시,순성면,북창초등학교운동장,충청남도 당진시 순성면 중방리 15-0,2292,126.764582,36.849949
160,충청남도,당진시,우강면,우강초등학교운동장,충청남도 당진시 우강면 송산리 29-0,3740,126.788872,36.824859
161,충청남도,당진시,신평면,신평초등학교운동장,충청남도 당진시 신평면 금천리 406-0,3838,126.7722,36.8861
162,충청남도,당진시,신평면,서정초등학교운동장,충청남도 당진시 신평면 거산리 40-0,2635,126.755344,36.880247
163,충청남도,당진시,신평면,한정초등학교운동장,충청남도 당진시 신평면 한정리 70-1,3579,126.805199,36.893591
164,충청남도,당진시,송산면,송산초등학교운동장,충청남도 당진시 송산면 상거리 426-1,2837,126.679283,36.931546
165,충청남도,당진시,송산면,당산초등학교운동장,충청남도 당진시 송산면 당산리 215-1,2564,126.649758,36.936278
166,충청남도,당진시,송산면,유곡초등학교,충청남도 당진시 송산면 유곡리 219-2,3000,126.69435,36.960278
167,충청남도,당진시,읍내동,당진초등학교운동장,충청남도 당진시 읍내동   211-0,4080,126.632586,36.89273
168,충청남도,계룡시,두마면,계룡고등학교 운동장,충청남도 계룡시 두마면 농소리 778-0,4293,127.258327,36.268065
169,충청남도,계룡시,엄사면,엄사중학교 운동장,충청남도 계룡시 엄사면 엄사리 396-9,4457,127.230143,36.287593
170,충청남도,아산시,용화동,온양용화중학교 운동장,충청남도 아산시 용화동   44-1,6790,127.00744,36.774446
171,충청남도,아산시,용화동,온양중학교 운동장,충청남도 아산시 용화동   276-0,11911,126.998419,36.773902
172,충청남도,아산시,읍내동,온양초등학교 운동장,충청남도 아산시 읍내동   150-0,10942,127.018274,36.76119
173,충청남도,아산시,풍기동,온양풍기초등학교 운동장,충청남도 아산시 풍기동   229-15,2820,127.018854,36.77455
174,충청남도,아산시,풍기동,온양여자고등학교 운동장,충청남도 아산시 풍기동   214-25,9300,127.014475,36.777974
175,충청남도,아산시,풍기동,온양여자중학교 운동장,충청남도 아산시 풍기동   214-28,16806,127.013695,36.77676
176,충청남도,서산시,갈산동,서산시종합운동장,충청남도 서산시 갈산동   90,137938,126.435775,36.797863
177,충청남도,서산시,동문동,서산중앙고등학교,충청남도 서산시 동문동   173-2,35468,126.471167,36.778195
178,충청남도,논산시,강경읍,강경중앙초등학교,충청남도 논산시 강경읍 남교리 87-1,445,127.019756,36.160343
179,충청남도,논산시,부적면,감곡초등학교,충청남도 논산시 부적면 외성리 366-3,1660,127.160344,36.210271
180,충청남도,논산시,연산면,청동초등학교,충청남도 논산시 연산면 청동리 540-0,1722,127.196556,36.212729
181,충청남도,논산시,연산면,백석초등학교,충청남도 논산시 연산면 백석리 543-7,1440,127.179601,36.247371
182,충청남도,논산시,벌곡면,벌곡초등학교,충청남도 논산시 벌곡면 한삼천리 260-0,716,127.266095,36.20789
183,충청남도,논산시,벌곡면,도산초등학교,충청남도 논산시 벌곡면 도산리 167-3,571,127.315671,36.162039
184,충청남도,논산시,양촌면,양촌초등학교,충청남도 논산시 양촌면 인천리 403-0,2608,127.233342,36.138468
185,충청남도,논산시,양촌면,건양고등학교,충청남도 논산시 양촌면 남산리 564-0,4584,127.234383,36.141143
186,충청남도,논산시,가야곡면,가야곡초등학교,충청남도 논산시 가야곡면 강청리 343-14,1983,127.168776,36.143697
187,충청남도,논산시,은진면,은진초등학교,충청남도 논산시 은진면 연서리 185-0,1539,127.106762,36.168171
188,충청남도,논산시,채운면,이화초등학교,충청남도 논산시 채운면 심암리 351-0,1800,127.071435,36.150562
189,충청남도,논산시,채운면,채운초등학교,충청남도 논산시 채운면 야화리 2-1,1800,127.067027,36.169941
190,충청남도,논산시,반월동,반월초등학교,충청남도 논산시 반월동   130-0,2160,127.084113,36.20322
191,충청남도,논산시,취암동,동성초등학교,충청남도 논산시 취암동   291-1,346,127.092787,36.202486
192,충청남도,논산시,관촉동,논산공설운동장,충청남도 논산시 관촉동   352-0,5703,127.117663,36.185067
193,충청남도,아산시,영인면,신화초등학교 운동장,충청남도 아산시 영인면 신화리 350-0,6328,126.969082,36.88579
194,충청남도,아산시,인주면,인주초등학교 운동장,충청남도 아산시 인주면 신성리 220-0,5040,126.895592,36.87565
195,충청남도,아산시,인주면,인주중학교 운동장,충청남도 아산시 인주면 관암리 418-1,8944,126.88005,36.860789
196,충청남도,아산시,선장면,아산성심학교 운동장,충청남도 아산시 선장면 군덕리 191-2,1290,126.863122,36.776273
197,충청남도,아산시,선장면,선도중학교 운동장,충청남도 아산시 선장면 군덕리 73-1,13276,126.863823,36.788733
198,충청남도,아산시,도고면,도고중학교 운동장,충청남도 아산시 도고면 시전리 159-0,10407,126.900961,36.743412
199,충청남도,아산시,신창면,오목초등학교 운동장,충청남도 아산시 신창면 오목리 310-4,12712,126.927836,36.808477
200,충청남도,아산시,신창면,신창중학교 운동장,충청남도 아산시 신창면 오목리 268-4,10360,126.930488,36.799904
201,충청남도,아산시,신창면,신창초등학교 운동장,충청남도 아산시 신창면 읍내리 310-0,7207,126.93289,36.780235
202,충청남도,아산시,신창면,아산남성초등학교 운동장,충청남도 아산시 신창면 남성리 119-4,4500,126.956934,36.787414
203,충청남도,아산시,온천동,온양온천초등학교 운동장,충청남도 아산시 온천동   307-1,17932,127.008773,36.78228
204,충청남도,아산시,온천동,온양중앙초등학교 운동장,충청남도 아산시 온천동   617-2,9180,127.001711,36.776615
205,충청남도,아산시,권곡동,충무초등학교 운동장,충청남도 아산시 권곡동   86-2,4125,127.02014,36.790556
206,충청남도,아산시,권곡동,온양권곡초등학교 운동장,충청남도 아산시 권곡동   201-1,3000,127.013819,36.790693
207,충청남도,아산시,신동,신리초등학교 운동장,충청남도 아산시 신동   224-1,8693,127.036477,36.779714
208,충청남도,아산시,실옥동,온양천도초등학교 운동장,충청남도 아산시 실옥동   183-6,5695,126.991779,36.787363
209,충청남도,아산시,실옥동,온양신정중학교 운동장,충청남도 아산시 실옥동   191-21,4680,126.987371,36.788561
210,충청남도,아산시,실옥동,온양신정초등학교 운동장,충청남도 아산시 실옥동   191-24,11326,126.986561,36.788013
211,충청남도,아산시,배미동,신광초등학교 운동장,충청남도 아산시 배미동   174-2,9853,126.969348,36.789046
212,충청남도,아산시,초사동,온양초사초등학교 운동장,충청남도 아산시 초사동   112-5,8953,126.973698,36.7511
213,충청남도,아산시,용화동,온양용화고등학교 운동장,충청남도 아산시 용화동   39-9,2925,127.003216,36.77369
214,충청남도,아산시,용화동,용화초등학교 운동장,충청남도 아산시 용화동   708-0,3670,126.995915,36.773485
215,충청남도,아산시,둔포면,아산전자기계고등학교 운동장,충청남도 아산시 둔포면 둔포리 235-0,19173,127.04351,36.929361
216,충청남도,아산시,둔포면,관대초등학교 운동장,충청남도 아산시 둔포면 산전리 322-0,12908,127.036717,36.898704
217,충청남도,아산시,둔포면,염작초등학교 운동장,충청남도 아산시 둔포면 염작리 290-4,9414,127.067104,36.916446
218,충청남도,아산시,영인면,영인중학교 운동장,충청남도 아산시 영인면 아산리 35-6,8400,126.960586,36.854582
219,충청남도,아산시,영인면,영인초등학교 운동장,충청남도 아산시 영인면 아산리 412-2,15718,126.953568,36.854448
220,충청남도,공주시,옥룡동,공주대학교옥룡캠퍼스 운동장,충청남도 공주시 옥룡동   201-0,2760,127.132683,36.451646
221,충청남도,공주시,신기동,효포초등학교 운동장,충청남도 공주시 신기동   407-0,1600,127.148007,36.428514
222,충청남도,공주시,신관동,신관초등학교 운동장,충청남도 공주시 신관동   318-1,3000,127.138793,36.475221
223,충청남도,공주시,금흥동,공주정보고등학교 운동장,충청남도 공주시 금흥동   1-1,2700,127.157091,36.484724
224,충청남도,보령시,웅천읍,웅천중고등학교,충청남도 보령시 웅천읍 대창리 449-1,4865,126.604448,36.234106
225,충청남도,보령시,청소면,청소초등학교,충청남도 보령시 청소면 진죽리 267-1,4955,126.592304,36.451487
226,충청남도,보령시,미산면,"미산초,중학교",충청남도 보령시 미산면 도화담리 94-0,2578,126.676976,36.288636
227,충청남도,보령시,주교면,송학초등학교,충청남도 보령시 주교면 송학리 110-0,5222,126.527028,36.379884
228,충청남도,보령시,주교면,관창초등학교,충청남도 보령시 주교면 관창리 130-3,7407,126.583405,36.385234
229,충청남도,보령시,대천동,대남초등학교,충청남도 보령시 대천동   158-2,3925,126.594556,36.352075
230,충청남도,보령시,동대동,한내여자중학교,충청남도 보령시 동대동   4-1,3800,126.623808,36.348983
231,충청남도,보령시,명천동,보령시청 테니스장 앞 공터,충청남도 보령시 명천동   269-4,3500,126.612142,36.333672
232,충청남도,아산시,염치읍,염티초등학교 운동장,충청남도 아산시 염치읍 염성리 173-0,8218,126.97762,36.816638
233,충청남도,아산시,염치읍,송곡초등학교 운동장,충청남도 아산시 염치읍 송곡리 53-1,3126,127.017918,36.807498
234,충청남도,아산시,배방읍,금곡초등학교 운동장,충청남도 아산시 배방읍 중리 345-0,4480,127.040619,36.749833
235,충청남도,아산시,배방읍,모산초등학교 운동장,충청남도 아산시 배방읍 공수리 176-35,3723,127.051644,36.76986
236,충청남도,아산시,배방읍,아산북수초등학교 운동장,충청남도 아산시 배방읍 북수리 299-24,4857,127.076903,36.768013
237,충청남도,아산시,배방읍,배방중학교 운동장,충청남도 아산시 배방읍 북수리 257-4,4398,127.071386,36.769466
238,충청남도,아산시,배방읍,설화중학교 운동장,충청남도 아산시 배방읍 장재리 1567-0,3375,127.09651,36.785682
239,충청남도,아산시,배방읍,설화고등학교 운동장,충청남도 아산시 배방읍 장재리 1441-0,5360,127.092149,36.787847
240,충청남도,아산시,배방읍,연화초등학교 운동장,충청남도 아산시 배방읍 장재리 1434-0,2692,127.095061,36.786959
241,충청남도,아산시,배방읍,아산용연초등학교 운동장,충청남도 아산시 배방읍 장재리 2052-0,3375,127.094314,36.792167
242,충청남도,아산시,송악면,송남중학교 운동장,충청남도 아산시 송악면 역촌리 353-1,13148,127.004201,36.721747
243,충청남도,아산시,송악면,송남초등학교 운동장,충청남도 아산시 송악면 역촌리 50-0,4779,127.010094,36.732682
244,충청남도,아산시,송악면,거산초등학교 운동장,충청남도 아산시 송악면 송학리 28-0,3000,126.989613,36.691975
245,충청남도,아산시,탕정면,충남외국어고등학교 운동장,충청남도 아산시 탕정면 명암리 851-0,5300,127.062967,36.803085
246,충청남도,아산시,탕정면,탕정중학교 운동장,충청남도 아산시 탕정면 명암리 852-0,3008,127.064134,36.802103
247,충청남도,아산시,탕정면,탕정초등학교 운동장,충청남도 아산시 탕정면 갈산리 529-0,10466,127.066219,36.801993
248,충청남도,아산시,탕정면,미래초등학교,충청남도 아산시 탕정면 갈산리 486-24,9275,127.063469,36.797799
249,충청남도,아산시,음봉면,음봉초등학교 운동장,충청남도 아산시 음봉면 삼거리 282-0,3451,127.011367,36.848932
250,충청남도,아산시,음봉면,쌍룡초등학교 운동장,충청남도 아산시 음봉면 쌍룡리 58-1,9053,127.074367,36.880051
251,충청남도,아산시,음봉면,월랑초등학교 운동장,충청남도 아산시 음봉면 월랑리 697-0,2700,127.082622,36.850107
252,충청남도,아산시,음봉면,음봉중학교 운동장,충청남도 아산시 음봉면 동암리 271-1,6633,127.067274,36.842553
253,충청남도,아산시,둔포면,둔포초등학교 운동장,충청남도 아산시 둔포면 둔포리 388-0,12362,127.038896,36.92671
254,충청남도,천안시,동남구,목천초등학교 운동장,충청남도 천안시 동남구 목천읍 서리 1-0,5500,127.235225,36.787532
255,충청남도,천안시,동남구,신흥초등학교 운동장,충청남도 천안시 동남구 목천읍 신계리 105-9,3500,127.216612,36.773667
256,충청남도,천안시,동남구,천안중앙초등학교 운동장,충청남도 천안시 동남구 오룡동   179-0,4800,127.148916,36.805467
257,충청남도,천안시,동남구,천안오룡경기장,충청남도 천안시 동남구 원성동   31-15,33378,127.162382,36.812662
258,충청남도,천안시,동남구,신방공원,충청남도 천안시 동남구 신방동   719-0,52000,127.120257,36.782461
259,충청남도,천안시,동남구,천안삼거리공원,충청남도 천안시 동남구 삼룡동   320-8,140000,127.16565,36.783772
260,충청남도,천안시,서북구,천안축구센터(잔디구장),충청남도 천안시 서북구 성정동   354,49564,127.146793,36.821801
261,충청남도,천안시,서북구,천안아름초등학교 운동장,충청남도 천안시 서북구 불당동   1574-0,3500,127.099901,36.799423
262,충청남도,천안시,서북구,천안차암초등학교 운동장,충청남도 천안시 서북구 차암동   549-0,3500,127.105966,36.844599
263,충청남도,공주시,유구읍,유구초등학교 운동장,충청남도 공주시 유구읍 석남리 189-2,3200,126.949759,36.554003
264,충청남도,공주시,유구읍,구산초등학교 운동장,충청남도 공주시 유구읍 유구리 440-3,2900,126.957748,36.551307
265,충청남도,공주시,유구읍,덕암초등학교 운동장,충청남도 공주시 유구읍 덕곡리 3-11,1200,126.969998,36.62978
266,충청남도,공주시,이인면,주봉초등학교 운동장,충청남도 공주시 이인면 주봉리 250-4,2350,127.078909,36.386888
267,충청남도,공주시,탄천면,탄천초등학교 운동장,충청남도 공주시 탄천면   458-1,5500,127.002172,36.353458
268,충청남도,공주시,계룡면,경천초등학교 운동장,충청남도 공주시 계룡면 경천리 371-1,2020,127.149645,36.324227
269,충청남도,공주시,계룡면,계룡초등학교 운동장,충청남도 공주시 계룡면 유평리 286-0,2070,127.141216,36.357557
270,충청남도,공주시,반포면,충남과학고등학교 운동장,충청남도 공주시 반포면 마암리 250-1,1330,127.218645,36.427465
271,충청남도,공주시,반포면,반포중학교 운동장,충청남도 공주시 반포면 봉곡리 242-6,2990,127.243563,36.404041
272,충청남도,공주시,의당면,수촌초등학교 운동장,충청남도 공주시 의당면 수촌리 200-1,1160,127.135003,36.51701
273,충청남도,공주시,정안면,석송초등학교 운동장,충청남도 공주시 정안면 전평리 28-2,2600,127.1143,36.564243
274,충청남도,공주시,정안면,정안초등학교 운동장,충청남도 공주시 정안면 내촌리 189-1,2050,127.116654,36.601786
275,충청남도,공주시,우성면,상서초등학교 운동장,충청남도 공주시 우성면 상서리 710-3,2780,127.077633,36.478801
276,충청남도,공주시,우성면,귀산초등학교 운동장,충청남도 공주시 우성면 귀산리 135-0,3400,127.112379,36.499685
277,충청남도,공주시,우성면,우성중학교 운동장,충청남도 공주시 우성면 방흥리 20-0,4900,127.053804,36.463538
278,충청남도,공주시,사곡면,호계초등학교 운동장,충청남도 공주시 사곡면 호계리 420-0,2270,127.023485,36.507488
279,충청남도,공주시,사곡면,마곡초등학교 운동장,충청남도 공주시 사곡면 운암리 453-0,1800,127.018507,36.558716
280,충청남도,공주시,신풍면,신풍초등학교 운동장,충청남도 공주시 신풍면 산정리 191-0,2130,126.953294,36.517158
281,충청남도,공주시,중학동,공주고등학교 운동장,충청남도 공주시 중학동   137-1,5800,127.12288,36.447456
282,충청남도,공주시,중동,공주영명고등학교 운동장,충청남도 공주시 중동   318-0,2240,127.126966,36.451154
283,충청남도,공주시,교동,공주교동초등학교 운동장,충청남도 공주시 교동   203-0,2250,127.116521,36.459359
284,충청남도,공주시,교동,공주여자중학교 운동장,충청남도 공주시 교동   3-2,2600,127.118874,36.460395
285,충청남도,공주시,웅진동,공주금성여자고등학교 운동장,충청남도 공주시 웅진동   277-0,2710,127.112049,36.458182
286,충청남도,공주시,금성동,공주중학교 운동장,충청남도 공주시 금성동   85-0,5000,127.118314,36.464518
287,충청남도,공주시,금학동,공주교대부설초등학교 운동장,충청남도 공주시 금학동   231-1,1110,127.118032,36.442211
288,충청남도,공주시,태봉동,공주태봉초등학교 운동장,충청남도 공주시 태봉동   407-0,1500,127.088961,36.415723
289,충청남도,금산군,금산읍,금산종합운동장,충청남도 금산군 금산읍 하옥리 73,20640,127.490662,36.081419
290,충청남도,금산군,금산읍,금산초등학교 운동장,충청남도 금산군 금산읍 상리 176-9,2140,127.48968,36.103927
291,충청남도,금산군,금산읍,금산동중학교 운동장,충청남도 금산군 금산읍 아인리 134-2,4154,127.481153,36.10572
292,충청남도,금산군,금산읍,금산여자고등학교 운동장,충청남도 금산군 금산읍 아인리 9-1,3482,127.48442,36.105039
293,충청남도,금산군,제원면,제원초등학교 운동장,충청남도 금산군 제원면 제원리 200-0,3219,127.545871,36.113674
294,충청남도,금산군,제원면,제원중학교 운동장,충청남도 금산군 제원면 명암리 167-1,4930,127.540671,36.111922
295,충청남도,금산군,부리면,부리초등학교 운동장,충청남도 금산군 부리면 양곡리 699-0,2387,127.555609,36.061909
296,충청남도,금산군,부리면,부리중학교 운동장,충청남도 금산군 부리면 양곡리 644-1,4462,127.555442,36.065734
297,충청남도,금산군,남일면,남일초등학교 운동장,충청남도 금산군 남일면 초현리 253-2,3019,127.503718,36.043329
298,충청남도,금산군,남이면,남이초등학교 운동장,충청남도 금산군 남이면 하금리 381-0,1644,127.436597,36.050501
299,충청남도,청양군,정산면,정산고등학교 운동장,충청남도 청양군 정산면 서정리 91-1,7172,126.949774,36.413322
300,충청남도,청양군,정산면,정산중학교 운동장,충청남도 청양군 정산면 서정리 55-0,4180,126.945825,36.413616
301,충청남도,청양군,정산면,정산초등학교 운동장,충청남도 청양군 정산면 서정리 34-0,11455,126.945757,36.416239
302,충청남도,청양군,목면,목면초등학교 운동장,충청남도 청양군 목면 안심리 355-0,3300,127.004335,36.420945
303,충청남도,청양군,청남면,청남초등학교 운동장,충청남도 청양군 청남면 청소리 216-1,1925,126.951765,36.355007
304,충청남도,청양군,청남면,청남중학교 운동장,충청남도 청양군 청남면 청소리 218-1,4096,126.950974,36.354584
305,충청남도,청양군,장평면,장평중학교 운동장,충청남도 청양군 장평면 중추리 14-0,9160,126.901744,36.347671
306,충청남도,청양군,장평면,장평초등학교 운동장,충청남도 청양군 장평면 중추리 26-2,7266,126.898819,36.346086
307,충청남도,청양군,장평면,미당초등학교 운동장,충청남도 청양군 장평면 미당리 38-0,9755,126.933623,36.374986
308,충청남도,청양군,남양면,동영중학교 운동장,충청남도 청양군 남양면 구룡리 402-1,5823,126.766438,36.401231
309,충청남도,청양군,남양면,남양초등학교 운동장,충청남도 청양군 남양면 구룡리 22-0,5050,126.776848,36.400893
310,충청남도,청양군,화성면,합천초등학교 운동장,충청남도 청양군 화성면 산정리 243-0,9847,126.714227,36.425499
311,충청남도,청양군,화성면,화성중학교 운동장,충청남도 청양군 화성면 구재리 156-3,13200,126.722093,36.436336
312,충청남도,청양군,비봉면,가남초등학교 운동장,충청남도 청양군 비봉면 록평리 29-0,5040,126.788335,36.51675
313,충청남도,홍성군,갈산면,갈산고등학교 운동장,충청남도 홍성군 갈산면 상촌리 227-1,5812,126.554544,36.602449
314,충청남도,홍성군,구항면,구항면사무소 주차장,충청남도 홍성군 구항면 오봉리 735-1,250,126.610537,36.587163
315,충청남도,태안군,태안읍,태안군청 광장,충청남도 태안군 태안읍 남문리 90,15634,126.298354,36.745475
316,충청남도,태안군,태안읍,남문공영주차장,충청남도 태안군 태안읍 남문리 156-3,13058,126.296635,36.752118
317,충청남도,태안군,안면읍,방포초 운동장,충청남도 태안군 안면읍 승언리 3025-10,4290,126.347574,36.507137
318,충청남도,태안군,안면읍,창기초 운동장,충청남도 태안군 안면읍 창기리 340-6,4002,126.338665,36.579746
319,충청남도,태안군,원북면,원이중 운동장,충청남도 태안군 원북면 마산리 510-2,5841,126.266611,36.829846
320,충청남도,금산군,진산면,진산초등학교 운동장,충청남도 금산군 진산면 읍내리 531-0,1893,127.367727,36.143251
321,충청남도,금산군,진산면,금산하이텍고등학교 운동장,충청남도 금산군 진산면 읍내리 172-0,3826,127.374085,36.142766
322,충청남도,금산군,복수면,복수초등학교 운동장,충청남도 금산군 복수면 곡남리 180-0,2787,127.397596,36.165875
323,충청남도,금산군,복수면,복수중학교 운동장,충청남도 금산군 복수면 수영리 240-1,3813,127.387989,36.181021
324,충청남도,금산군,복수면,신대초등학교 운동장,충청남도 금산군 복수면 신대리 502-0,2890,127.378057,36.209553
325,충청남도,금산군,추부면,추부초등학교 운동장,충청남도 금산군 추부면 마전리 412-0,3398,127.468815,36.191034
326,충청남도,부여군,부여읍,송간초등학교 운동장,충청남도 부여군 부여읍 가증리 1-0,3200,126.957725,36.307724
327,충청남도,부여군,부여읍,서동공원 서문주차장,충청남도 부여군 부여읍 동남리 172-1,13736,126.909808,36.271159
328,충청남도,부여군,부여읍,궁남초등학교 운동장,충청남도 부여군 부여읍 동남리 214-4,4000,126.906594,36.274919
329,충청남도,부여군,부여읍,부여여자고등학교 운동장,충청남도 부여군 부여읍 쌍북리 646-10,5500,126.916799,36.284948
330,충청남도,부여군,부여읍,대왕초등학교 운동장,충청남도 부여군 부여읍 가탑리 377-1,3000,126.928003,36.268399
331,충청남도,부여군,부여읍,부여고등학교 운동장,충청남도 부여군 부여읍 가탑리 259-0,10000,126.923511,36.272618
332,충청남도,부여군,규암면,백제중학교,충청남도 부여군 규암면 반산리 276-0,7000,126.864945,36.272558
333,충청남도,부여군,규암면,백강초등학교 운동장,충청남도 부여군 규암면 오수리 208-0,4200,126.891452,36.296498
334,충청남도,부여군,은산면,은산초등학교 운동장,충청남도 부여군 은산면 신대리 333-0,7000,126.855043,36.313822
335,충청남도,부여군,외산면,외산초등학교 운동장,충청남도 부여군 외산면 장항리 211-1,4200,126.715879,36.315366
336,충청남도,부여군,외산면,외산중학교 운동장,충청남도 부여군 외산면 만수리 34-14,5000,126.701068,36.299949
337,충청남도,부여군,내산면,내산초등학교 운동장,충청남도 부여군 내산면 운치리 442-6,3500,126.777099,36.281519
338,충청남도,부여군,구룡면,구룡초등학교 운동장,충청남도 부여군 구룡면 태양리 68-1,2800,126.813916,36.253454
339,충청남도,부여군,구룡면,용당초등학교 운동장,충청남도 부여군 구룡면 용당리 629-0,3200,126.826132,36.236673
340,충청남도,부여군,홍산면,홍산중학교 운동장,충청남도 부여군 홍산면 북촌리 124-48,10000,126.766659,36.214053
341,충청남도,부여군,옥산면,옥산초등학교 운동장,충청남도 부여군 옥산면 안서리 368-2,4200,126.732862,36.19047
342,충청남도,부여군,남면,마정초등학교 운동장,충청남도 부여군 남면 마정리 811-0,3000,126.839342,36.217686
343,충청남도,부여군,충화면,충화초등학교 운동장,충청남도 부여군 충화면 천당리 463-1,4000,126.814581,36.182901
344,충청남도,부여군,양화면,양화초등학교 운동장,충청남도 부여군 양화면 족교리 201-2,4200,126.856939,36.128176
345,충청남도,부여군,임천면,임천초등학교 운동장,충청남도 부여군 임천면 군사리 252-0,3000,126.893385,36.190905
346,충청남도,부여군,임천면,부여전자고등학교 운동장,충청남도 부여군 임천면 만사리 199-0,4000,126.892299,36.17664
347,충청남도,부여군,장암면,장암초등학교 운동장,충청남도 부여군 장암면 석동리 39-2,3800,126.895584,36.241613
348,충청남도,부여군,세도면,인세초등학교 운동장,충청남도 부여군 세도면 귀덕리 503-0,4600,126.973223,36.166781
349,충청남도,부여군,세도면,세도초등학교 운동장,충청남도 부여군 세도면 청송리 466-3,4000,126.947589,36.175142
350,충청남도,부여군,석성면,석성초등학교 운동장,충청남도 부여군 석성면 석성리 745-1,3000,126.989157,36.223455
351,충청남도,부여군,석성면,석성중학교,충청남도 부여군 석성면 증산리 1249-2,5300,126.99876,36.249837
352,충청남도,부여군,초촌면,초촌초등학교 운동장,충청남도 부여군 초촌면 응평리 80-0,3500,127.024108,36.262787
353,충청남도,청양군,청양읍,청양초등학교 운동장,충청남도 청양군 청양읍 읍내리 5-2,4711,126.80584,36.453612
354,충청남도,청양군,청양읍,청신여자중학교 운동장,충청남도 청양군 청양읍 벽천리 36-0,7854,126.800027,36.441752
355,충청남도,청양군,청양읍,청양중학교 운동장,충청남도 청양군 청양읍 송방리 133-1,10725,126.795838,36.451645
356,충청남도,청양군,청양읍,청송초등학교 운동장,충청남도 청양군 청양읍 송방리 292-1,13010,126.787724,36.449295
357,충청남도,청양군,청양읍,청양고등학교 운동장,충청남도 청양군 청양읍 송방리 133-0,11500,126.797292,36.451922
358,충청남도,청양군,운곡면,운곡초등학교 운동장,충청남도 청양군 운곡면 신대리 598-0,6444,126.846094,36.524472
359,충청남도,청양군,대치면,수정초등학교 운동장,충청남도 청양군 대치면 주정리 258-5,2633,126.828558,36.445418
360,충청남도,천안시,동남구,천안초등학교 운동장,충청남도 천안시 동남구 성황동   36-0,10000,127.151364,36.813546
361,충청남도,천안시,동남구,천안남산초등학교 운동장,충청남도 천안시 동남구 원성동   304-0,5500,127.154139,36.804798
362,충청남도,천안시,동남구,천안구성초등학교 운동장,충청남도 천안시 동남구 구성동   388-71,5500,127.158251,36.793067
363,충청남도,천안시,동남구,청수호수공원,충청남도 천안시 동남구 청수동   270-0,20000,127.148286,36.787313
364,충청남도,천안시,동남구,천안삼거리초등학교 운동장,충청남도 천안시 동남구 삼룡동   246-24,5500,127.163695,36.789216
365,충청남도,천안시,동남구,천안생활체육공원,충청남도 천안시 동남구 청당동   976,52000,127.164656,36.77821
366,충청남도,천안시,동남구,천안가온초등학교 운동장,충청남도 천안시 동남구 청당동   469-0,3000,127.149189,36.785043
367,충청남도,천안시,동남구,천안청당초등학교 운동장,충청남도 천안시 동남구 청당동   300-0,3000,127.151201,36.779672
368,충청남도,천안시,동남구,태조산공원,충청남도 천안시 동남구 유량동   6-0,50000,127.18854,36.821914
369,충청남도,천안시,동남구,천안봉서초등학교 운동장,충청남도 천안시 동남구 봉명동   482-0,5500,127.131248,36.8128
370,충청남도,천안시,동남구,천안봉명초등학교 운동장,충청남도 천안시 동남구 봉명동   214-0,4000,127.13506,36.805659
371,충청남도,천안시,동남구,천안일봉초등학교 운동장,충청남도 천안시 동남구 다가동   380-8,7000,127.138889,36.799642
372,충청남도,천안시,동남구,천안용소초등학교 운동장,충청남도 천안시 동남구 용곡동   476-17,3500,127.135411,36.789452
373,충청남도,천안시,동남구,천안청룡초등학교 운동장,충청남도 천안시 동남구 용곡동   584-0,3200,127.139502,36.780722
374,충청남도,천안시,동남구,천안신촌초등학교 운동장,충청남도 천안시 동남구 신방동   768-1,4000,127.123294,36.786831
375,충청남도,천안시,동남구,천안신용초등학교 운동장,충청남도 천안시 동남구 신방동   40-0,2800,127.132375,36.790964
376,충청남도,천안시,동남구,천안새샘초등학교 운동장,충청남도 천안시 동남구 신방동   1924-0,3800,127.131109,36.77086
377,충청남도,천안시,동남구,도솔광장,충청남도 천안시 동남구 신부동   139-2,53000,127.160417,36.824469
378,충청남도,천안시,동남구,천안신안초등학교 운동장,충청남도 천안시 동남구 신부동   58-11,6000,127.162239,36.814947
379,충청남도,천안시,동남구,천안신부초등학교 ,충청남도 천안시 동남구 신부동   670-0,3500,127.160532,36.822694
380,충청남도,천안시,동남구,안서초등학교 운동장,충청남도 천안시 동남구 안서동   318-7,3000,127.175513,36.832164
381,충청남도,천안시,동남구,풍세초등학교 운동장,충청남도 천안시 동남구 풍세면 풍서리 452-0,5500,127.118237,36.725997
382,충청남도,천안시,동남구,광덕초등학교 운동장,충청남도 천안시 동남구 광덕면 신흥리 318-1,5500,127.110061,36.698399
383,충청남도,천안시,동남구,위례초등학교 운동장,충청남도 천안시 동남구 북면 오곡리 360-0,4500,127.274043,36.824429
384,충청남도,천안시,동남구,신사초등학교 운동장,충청남도 천안시 동남구 성남면 신사리 345-0,3000,127.237738,36.742722
385,충청남도,천안시,동남구,수신초등학교 운동장,충청남도 천안시 동남구 수신면 속창리 139-0,3500,127.282948,36.732768
386,충청남도,천안시,동남구,병천초등학교 운동장,충청남도 천안시 동남구 병천면 병천리 123-0,5500,127.300724,36.765702
387,충청남도,천안시,동남구,천동초등학교 운동장,충청남도 천안시 동남구 동면 동산리 553-0,3500,127.34758,36.778319
388,충청남도,천안시,서북구,천안와촌초등학교 운동장,충청남도 천안시 서북구 와촌동   174-0,3500,127.144432,36.805993
389,충청남도,천안시,서북구,성정공원,충청남도 천안시 서북구 성정동   1285-0,20000,127.139652,36.829432
390,충청남도,천안시,서북구,천안서초등학교 운동장,충청남도 천안시 서북구 성정동   644-0,6000,127.13996,36.823574
391,충청남도,천안시,서북구,천안성정초등학교 운동장,충청남도 천안시 서북구 성정동   716-1,3500,127.140901,36.815334
392,충청남도,천안시,서북구,천안시종합운동장(주경기장),충청남도 천안시 서북구 백석동   251-0,11123,127.113986,36.819918
393,충청남도,천안시,서북구,천안시종합운동장(보조경기장),충청남도 천안시 서북구 백석동   251-0,7841,127.115224,36.82039
394,충청남도,천안시,서북구,천안백석초등학교 운동장,충청남도 천안시 서북구 백석동   902-0,2800,127.121971,36.820427
395,충청남도,천안시,서북구,환서초등학교 운동장,충청남도 천안시 서북구 백석동   105-0,35600,127.12241,36.827751
396,충청남도,천안시,서북구,천안오성초등학교 운동장,충청남도 천안시 서북구 두정동   675-0,3500,127.130105,36.831324
397,충청남도,천안시,서북구,천안신대초등학교 운동장,충청남도 천안시 서북구 두정동   1546-0,3500,127.143066,36.8372
398,충청남도,천안시,서북구,천안부성초등학교 운동장,충청남도 천안시 서북구 두정동   956-0,7000,127.136864,36.835103
399,충청남도,천안시,서북구,천안두정초등학교 운동장,충청남도 천안시 서북구 두정동   1626-0,2800,127.147364,36.836146
400,충청남도,천안시,서북구,천안월봉초등학교 운동장,충청남도 천안시 서북구 쌍용동   1549-0,4000,127.115978,36.796717
401,충청남도,천안시,서북구,천안수곡초등학교 운동장,충청남도 천안시 서북구 쌍용동   440-27,3000,127.122703,36.790337
402,충청남도,천안시,서북구,방아다리공원,충청남도 천안시 서북구 쌍용동   1563-0,12000,127.117927,36.793094
403,충청남도,천안시,서북구,천안쌍정초등학교 운동장,충청남도 천안시 서북구 쌍용동   2076-0,3000,127.11521,36.786869
404,충청남도,천안시,서북구,쌍용공원,충청남도 천안시 서북구 쌍용동   산84-0,35000,127.129772,36.810866
405,충청남도,천안시,서북구,천안미라초등학교 운동장,충청남도 천안시 서북구 쌍용동   1231-0,3500,127.128574,36.800471
406,충청남도,천안시,서북구,천안용암초등학교 운동장,충청남도 천안시 서북구 쌍용동   1922-0,3500,127.118225,36.803823
407,충청남도,천안시,서북구,천안쌍용초등학교 운동장,충청남도 천안시 서북구 쌍용동   1300-0,4000,127.123107,36.801264
408,충청남도,천안시,서북구,천안불당초등학교 운동장,충청남도 천안시 서북구 불당동   860-0,3500,127.109165,36.805694
409,충청남도,천안시,서북구,천안불무초등학교 운동장,충청남도 천안시 서북구 불당동   64-0,5500,127.104624,36.81925
410,충청남도,천안시,서북구,천안서당초등학교 운동장,충청남도 천안시 서북구 불당동   816-0,3500,127.113716,36.803871
411,충청남도,천안시,서북구,천안업성초등학교 운동장,충청남도 천안시 서북구 업성동   99-1,4000,127.141605,36.861127
412,충청남도,천안시,서북구,천안부대초등학교 운동장,충청남도 천안시 서북구 부대동   270-0,7000,127.151749,36.848577
413,충청남도,천안시,서북구,성환초등학교 운동장,충청남도 천안시 서북구 성환읍 성환리 274-2,8500,127.132511,36.917651
414,충청남도,천안시,서북구,성신초등학교 운동장,충청남도 천안시 서북구 성환읍 성환리 449-5,3500,127.12891,36.918562
415,충청남도,천안시,서북구,성거초등학교 운동장,충청남도 천안시 서북구 성거읍 송남리 18-1,3500,127.199887,36.871524
416,충청남도,천안시,서북구,소망초등학교 운동장,충청남도 천안시 서북구 성거읍 소우리 188-29,3500,127.162088,36.875795
417,충청남도,천안시,서북구,서북구청 운동장,충청남도 천안시 서북구 성거읍 신월리 343-1,10000,127.155088,36.878071
418,충청남도,천안시,서북구,삼은초등학교 운동장,충청남도 천안시 서북구 직산읍 삼은리 76-16,3500,127.147699,36.877733
419,충청남도,천안시,서북구,양대초등학교 운동장,충청남도 천안시 서북구 입장면 하장리 18-1,3200,127.226248,36.915158
420,충청남도,천안시,서북구,입장초등학교 운동장 ,충청남도 천안시 서북구 입장면 하장리 54-1,7000,127.220021,36.913073
421,충청남도,논산시,은진면,성덕초등학교,충청남도 논산시 은진면 성덕리 218-0,8854,127.12954,36.176252
422,충청남도,계룡시,두마면,두마초등학교 운동장,충청남도 계룡시 두마면 두계리 60-1,4958,127.269953,36.269758
423,충청남도,계룡시,신도안면,용남고등학교 운동장,충청남도 계룡시 신도안면 남선리 1278,12610,127.251241,36.311496
424,충청남도,계룡시,신도안면,용남초등학교 운동장,충청남도 계룡시 신도안면 남선리 1322,9900,127.24673,36.323271
425,충청남도,당진시,송악읍,전대초등학교운동장,충청남도 당진시 송악읍 전대리 791-23,3048,126.749708,36.909474
426,충청남도,당진시,고대면,고산초등학교운동장,충청남도 당진시 고대면 장항리 1050-2,3338,126.572696,36.957469
427,충청남도,공주시,신관동,금강신관공원,충청남도 공주시 신관동   553,138000,127.131637,36.468916
428,충청남도,공주시,신관동,신월초등학교 운동장,충청남도 공주시 신관동   1-32,1450,127.148753,36.473625
429,충청남도,보령시,대천동,대천여자중학교,충청남도 보령시 대천동   453-1,2500,126.593406,36.35457
430,충청남도,보령시,대천동,대천여자고등학교,충청남도 보령시 대천동   500-2,7758,126.584426,36.360137
431,충청남도,보령시,대천동,대천초등학교,충청남도 보령시 대천동   37-2,3841,126.599671,36.35406
432,충청남도,보령시,죽정동,대천고등학교,충청남도 보령시 죽정동   562-0,5426,126.604111,36.365534
433,충청남도,보령시,동대동,대천동대초등학교,충청남도 보령시 동대동   319-118,2625,126.614131,36.352624
434,충청남도,보령시,명천동,명천초등학교,충청남도 보령시 명천동   325-1,1130,126.611194,36.339002
435,충청남도,보령시,명천동,한내초등학교,충청남도 보령시 명천동   431-0,8838,126.601577,36.341704
436,충청남도,보령시,내항동,대천여자상업고등학교,충청남도 보령시 내항동   502-0,5260,126.578952,36.332143
437,충청남도,보령시,신흑동,청룡초등학교,충청남도 보령시 신흑동   350-0,8745,126.538739,36.319455
438,충청남도,보령시,신흑동,청파초등학교,충청남도 보령시 신흑동   835-0,1793,126.511584,36.318394
439,충청남도,보령시,웅천읍,웅천초등학교,충청남도 보령시 웅천읍 대천리 130-0,3866,126.591676,36.239926
440,충청남도,보령시,주포면,주포초등학교,충청남도 보령시 주포면 보령리 170-4,1776,126.590525,36.415961
441,충청남도,보령시,주포면,보령중학교,충청남도 보령시 주포면 보령리 266-1,3056,126.589847,36.416608
442,충청남도,보령시,오천면,오천초등학교,충청남도 보령시 오천면 소성리 665-1,1025,126.52321,36.438297
443,충청남도,보령시,천북면,천북초등학교,충청남도 보령시 천북면 하만리 246-5,3965,126.53153,36.481798
444,충청남도,보령시,천북면,낙동초등학교,충청남도 보령시 천북면 낙동리 293-5,1550,126.565482,36.493866
445,충청남도,보령시,청라면,청라초등학교,충청남도 보령시 청라면 나원리 916-0,6951,126.67252,36.390316
446,충청남도,보령시,청라면,청보초등학교,충청남도 보령시 청라면 내현리 636-0,7684,126.656216,36.389407
447,충청남도,보령시,남포면,남포초등학교,충청남도 보령시 남포면 읍내리 360-1,4139,126.609189,36.304878
448,충청남도,보령시,남포면,남포중학교,충청남도 보령시 남포면 달산리 154-1,6281,126.591319,36.295168
449,충청남도,보령시,주산면,주산초등학교,충청남도 보령시 주산면 금암리 570-0,3631,126.634824,36.199558
450,충청남도,보령시,주산면,주산산업고등학교,충청남도 보령시 주산면 금암리 506-0,1881,126.636282,36.198152
451,충청남도,보령시,성주면,성주초등학교,충청남도 보령시 성주면 성주리 117-0,4041,126.65368,36.342056
452,충청남도,보령시,성주면,개화초등학교,충청남도 보령시 성주면 개화리 307-3,1400,126.654381,36.306645
453,충청남도,아산시,온천동,온양고등학교 운동장,충청남도 아산시 온천동   261-0,10912,126.995426,36.784366
454,충청남도,아산시,풍기동,이순신종합운동장,충청남도 아산시 풍기동   366-2,9890,127.021236,36.768318
455,충청남도,아산시,모종동,온양동신초등학교 운동장,충청남도 아산시 모종동   586-1,9220,127.017579,36.779631
456,충청남도,아산시,배방읍,배방고등학교 운동장,충청남도 아산시 배방읍 북수리 729-0,4314,127.067163,36.769415
457,충청남도,아산시,배방읍,동방초등학교 운동장,충청남도 아산시 배방읍 휴대리 145-0,4775,127.114139,36.779415
458,충청남도,아산시,탕정면,동덕초등학교 운동장,충청남도 아산시 탕정면 동산리 423-1,14622,127.084552,36.820455
459,충청남도,아산시,둔포면,남창초등학교 운동장,충청남도 아산시 둔포면 신남리 230-0,12230,127.001374,36.920611
460,충청남도,아산시,인주면,금성초등학교 운동장,충청남도 아산시 인주면 금성리 83-0,6320,126.879853,36.844422
461,충청남도,아산시,도고면,도고온천초등학교 운동장,충청남도 아산시 도고면 신언리 60-1,4567,126.875859,36.757708
462,충청남도,아산시,도고면,도고초등학교 운동장,충청남도 아산시 도고면 시전리 200-0,7991,126.89948,36.746333
463,충청남도,서산시,읍내동,부춘초등학교,충청남도 서산시 읍내동   130,5263,126.446595,36.778588
464,충청남도,서산시,읍내동,부춘중학교,충청남도 서산시 읍내동   585-1,4786,126.444292,36.786056
465,충청남도,서산시,읍내동,학돌초등학교,충청남도 서산시 읍내동   624-2,2571,126.444674,36.784711
466,충청남도,서산시,동문동,서동초등학교,충청남도 서산시 동문동   90-0,6156,126.467598,36.783166
467,충청남도,서산시,동문동,서령고등학교,충청남도 서산시 동문동   542-0,5500,126.459542,36.792704
468,충청남도,서산시,동문동,서령중학교,충청남도 서산시 동문동   552-0,8571,126.458553,36.791907
469,충청남도,서산시,동문동,서산동문초등학교,충청남도 서산시 동문동   11-0,4870,126.466736,36.787782
470,충청남도,서산시,석림동,서산석림중학교,충청남도 서산시 석림동   557-10,3280,126.468501,36.773183
471,충청남도,서산시,석림동,서산여자고등학교,충청남도 서산시 석림동   486-1,13632,126.467399,36.769457
472,충청남도,서산시,석림동,석림초등학교,충청남도 서산시 석림동   457-7,2837,126.465698,36.769583
473,충청남도,서산시,석림동,서산여자중학교,충청남도 서산시 석림동   420-0,10766,126.467589,36.768169
474,충청남도,서산시,석남동,서림초등학교,충청남도 서산시 석남동   64-1,4268,126.460612,36.767633
475,충청남도,서산시,석남동,서산중학교,충청남도 서산시 석남동   57-1,8198,126.459058,36.768612
476,충청남도,서산시,예천동,예천초등학교,충청남도 서산시 예천동   78-4,2946,126.44964,36.769226
477,충청남도,서산시,죽성동,서령초등학교,충청남도 서산시 죽성동   77-2,3774,126.447781,36.743768
478,충청남도,서산시,오남동,오산초등학교,충청남도 서산시 오남동   305-6,7336,126.483325,36.745509
479,충청남도,서산시,대산읍,대산초등학교,충청남도 서산시 대산읍 대산리 97-2,3000,126.435079,36.93965
480,충청남도,서산시,대산읍,명지중학교,충청남도 서산시 대산읍 대로리 313-20,3400,126.41041,36.967398
481,충청남도,서산시,대산읍,명지초등학교,충청남도 서산시 대산읍 대로리 278-0,3727,126.41011,36.971472
482,충청남도,서산시,대산읍,대진초등학교,충청남도 서산시 대산읍 기은리 612-19,2575,126.384332,36.977265
483,충청남도,서산시,인지면,인지초등학교,충청남도 서산시 인지면 둔당리 235-0,5440,126.42572,36.755538
484,충청남도,서산시,인지면,인지중학교,충청남도 서산시 인지면 야당리 545-10,4570,126.426901,36.749678
485,충청남도,서산시,인지면,차동초등학교,충청남도 서산시 인지면 차리 41-0,4516,126.400909,36.776288
486,충청남도,서산시,지곡면,서일고등학교,충청남도 서산시 지곡면 화천리 908-0,12393,126.432784,36.859061
487,충청남도,서산시,지곡면,부성초등학교,충청남도 서산시 지곡면 화천리 307-0,8468,126.435759,36.864558
488,충청남도,서산시,성연면,성연초등학교,충청남도 서산시 성연면 일람리 1084-0,2322,126.44884,36.824045
489,충청남도,서산시,성연면,성연중학교,충청남도 서산시 성연면 평리 299-1,10349,126.462521,36.836816
490,충청남도,서산시,음암면,음암초등학교,충청남도 서산시 음암면 도당리 849-0,4000,126.51893,36.800271
491,충청남도,서산시,음암면,음암중학교,충청남도 서산시 음암면 도당리 585-18,10000,126.518373,36.78974
492,충청남도,서산시,음암면,동암초등학교,충청남도 서산시 음암면 신장리 228-12,5140,126.512137,36.761861
493,충청남도,서산시,운산면,운신초등학교,충청남도 서산시 운산면 신창리 304-1,6043,126.562015,36.7564
494,충청남도,서산시,운산면,운산초등학교,충청남도 서산시 운산면 용장리 369-0,9863,126.583282,36.811516
495,충청남도,서산시,운산면,운산공업고등학교,충청남도 서산시 운산면 용장리 246-1,7854,126.587133,36.809238
496,충청남도,서산시,운산면,대철중학교,충청남도 서산시 운산면 갈산리 419-16,6966,126.578723,36.803854
497,충청남도,서산시,고북면,고북중학교,충청남도 서산시 고북면 가구리 624-27,8400,126.534153,36.669679
498,충청남도,서산시,고북면,고북초등학교,충청남도 서산시 고북면 기포리 218-0,4450,126.531294,36.667042
499,충청남도,논산시,부창동,부창초등학교,충청남도 논산시 부창동   31,962,127.084766,36.199683
500,충청남도,논산시,내동,논산내동초등학교,충청남도 논산시 내동   162-1,4568,127.10449,36.185754
501,충청남도,논산시,강경읍,황산초등학교,충청남도 논산시 강경읍 황산리 31-2,450,127.013158,36.158204
502,충청남도,논산시,연무읍,연무초등학교,충청남도 논산시 연무읍 금곡리 40-0,1200,127.097607,36.117457
503,충청남도,논산시,연무읍,황화초등학교,충청남도 논산시 연무읍 마전리 811-17,1300,127.089838,36.088658
504,충청남도,논산시,성동면,성동초등학교,충청남도 논산시 성동면 삼산리 108-0,2363,127.033619,36.199064
505,충청남도,논산시,성동면,원봉초등학교,충청남도 논산시 성동면 정지리 100-0,660,127.060596,36.212495
506,충청남도,논산시,광석면,광석초등학교,충청남도 논산시 광석면 신당리 14-0,548,127.081021,36.243623
507,충청남도,논산시,광석면,광석중학교,충청남도 논산시 광석면 천동리 642-1,2904,127.081657,36.238515
508,충청남도,논산시,광석면,왕전초등학교,충청남도 논산시 광석면 왕전리 308-0,462,127.108924,36.239683
509,충청남도,논산시,노성면,노성초등학교,충청남도 논산시 노성면 송당리 114-4,660,127.121715,36.278095
510,충청남도,논산시,상월면,상월초등학교,충청남도 논산시 상월면 신충리 25-0,3159,127.139667,36.293761
511,충청남도,논산시,상월면,대명초등학교,충청남도 논산시 상월면 대촌리 268-0,2128,127.167185,36.297664
512,충청남도,논산시,부적면,부적초등학교,충청남도 논산시 부적면 반송리 237-6,3428,127.135845,36.211799
